"id","name","iata_code","city","country","latitude","longitude","destination_count","airline_count","annual_passenger","annual_flight","area","gate_count","runway_count","open_date"
1,"Goroka Airport","GKA","Goroka","Papua New Guinea",-6.081690,145.391998,2,2,NULL,NULL,NULL,NULL,2,NULL
2,"Madang Airport","MAG","Madang","Papua New Guinea",-5.207080,145.789001,4,2,NULL,NULL,NULL,NULL,1,NULL
3,"Mount Hagen Kagamuga Airport","HGU","Mount Hagen","Papua New Guinea",-5.826790,144.296005,6,2,NULL,NULL,NULL,NULL,2,NULL
4,"Nadzab Airport","LAE","Nadzab","Papua New Guinea",-6.569803,146.725977,5,2,NULL,NULL,NULL,NULL,1,NULL
5,"Port Moresby Jacksons International Airport","POM","Port Moresby","Papua New Guinea",-9.443380,147.220001,30,6,NULL,NULL,NULL,NULL,2,NULL
6,"Wewak International Airport","WWK","Wewak","Papua New Guinea",-3.583830,143.669006,5,2,NULL,NULL,NULL,NULL,1,NULL
7,"Narsarsuaq Airport","UAK","Narssarssuaq","Greenland",61.160500,-45.425999,8,2,26284,NULL,NULL,NULL,1,NULL
8,"Godthaab / Nuuk Airport","GOH","Godthaab","Greenland",64.190903,-51.678101,12,2,NULL,NULL,NULL,NULL,1,NULL
9,"Kangerlussuaq Airport","SFJ","Sondrestrom","Greenland",67.012222,-50.711603,NULL,NULL,133381,4826,NULL,NULL,1,NULL
10,"Thule Air Base","THU","Thule","Greenland",76.531197,-68.703201,NULL,NULL,NULL,NULL,NULL,NULL,1,NULL
11,"Akureyri Airport","AEY","Akureyri","Iceland",65.660004,-18.072701,7,5,202252,2018,NULL,NULL,1,NULL
12,"Egilsstaðir Airport","EGS","Egilsstadir","Iceland",65.283302,-14.401400,NULL,NULL,83954,NULL,NULL,NULL,1,NULL
13,"Hornafjörður Airport","HFN","Hofn","Iceland",64.295601,-15.227200,NULL,NULL,11183,NULL,NULL,NULL,1,NULL
14,"Húsavík Airport","HZK","Husavik","Iceland",65.952301,-17.426001,NULL,NULL,20394,NULL,NULL,NULL,1,NULL
15,"Ísafjörður Airport","IFJ","Isafjordur","Iceland",66.058098,-23.135300,NULL,NULL,33076,NULL,NULL,NULL,1,"1960-10-02"
16,"Keflavik International Airport","KEF","Keflavik","Iceland",63.985001,-22.605600,94,27,7776147,76,NULL,NULL,2,"1942-01-01"
17,"Patreksfjörður Airport","PFJ","Patreksfjordur","Iceland",65.555801,-23.965000,NULL,NULL,NULL,NULL,NULL,NULL,1,NULL
18,"Reykjavik Airport","RKV","Reykjavik","Iceland",64.129997,-21.940599,NULL,NULL,NULL,64190,NULL,NULL,3,"1919-09-03"
19,"Siglufjörður Airport","SIJ","Siglufjordur","Iceland",66.133301,-18.916700,NULL,NULL,NULL,NULL,NULL,NULL,1,NULL
20,"Vestmannaeyjar Airport","VEY","Vestmannaeyjar","Iceland",63.424301,-20.278900,NULL,NULL,19107,NULL,NULL,NULL,2,NULL
21,"Sault Ste Marie Airport","YAM","Sault Sainte Marie","Canada",46.485001,-84.509399,4,3,NULL,NULL,NULL,NULL,2,NULL
22,"Winnipeg / St. Andrews Airport","\N","Winnipeg","Canada",50.056400,-97.032501,NULL,NULL,NULL,NULL,NULL,NULL,NULL,NULL
23,"Halifax / CFB Shearwater Heliport","\N","Halifax","Canada",44.639702,-63.499401,NULL,NULL,NULL,NULL,NULL,NULL,NULL,NULL
24,"St. Anthony Airport","YAY","St. Anthony","Canada",51.391899,-56.083099,NULL,NULL,NULL,4239,NULL,NULL,1,NULL
25,"Tofino / Long Beach Airport","YAZ","Tofino","Canada",49.079833,-125.775583,NULL,NULL,NULL,NULL,NULL,NULL,3,NULL
26,"Kugaaruk Airport","YBB","Pelly Bay","Canada",68.534401,-89.808098,NULL,NULL,NULL,1782,NULL,NULL,1,NULL
27,"Baie Comeau Airport","YBC","Baie Comeau","Canada",49.132500,-68.204399,NULL,NULL,NULL,NULL,NULL,NULL,1,NULL
28,"CFB Bagotville","YBG","Bagotville","Canada",48.330601,-70.996399,NULL,NULL,NULL,NULL,NULL,NULL,2,NULL
29,"Baker Lake Airport","YBK","Baker Lake","Canada",64.298897,-96.077797,NULL,NULL,NULL,6457,NULL,NULL,1,NULL
30,"Campbell River Airport","YBL","Campbell River","Canada",49.950802,-125.271004,NULL,NULL,NULL,30604,NULL,NULL,1,NULL
31,"Brandon Municipal Airport","YBR","Brandon","Canada",49.910000,-99.951897,NULL,NULL,NULL,21591,NULL,NULL,2,NULL
32,"Cambridge Bay Airport","YCB","Cambridge Bay","Canada",69.108101,-105.138000,NULL,NULL,NULL,6215,NULL,NULL,1,NULL
33,"Nanaimo Airport","YCD","Nanaimo","Canada",49.054970,-123.869863,4,3,NULL,32446,NULL,NULL,1,NULL
34,"Castlegar/West Kootenay Regional Airport","YCG","Castlegar","Canada",49.296398,-117.632004,NULL,NULL,NULL,NULL,NULL,NULL,1,NULL
35,"Miramichi Airport","YCH","Chatham","Canada",47.007801,-65.449203,NULL,NULL,NULL,6255,NULL,NULL,1,NULL
36,"Charlo Airport","YCL","Charlo","Canada",47.990799,-66.330299,NULL,NULL,NULL,1380,NULL,NULL,1,NULL
37,"Kugluktuk Airport","YCO","Coppermine","Canada",67.816704,-115.143997,NULL,NULL,NULL,4185,NULL,NULL,1,NULL
38,"Coronation Airport","YCT","Coronation","Canada",52.075001,-111.445000,NULL,NULL,NULL,NULL,NULL,NULL,1,NULL
39,"Chilliwack Airport","YCW","Chilliwack","Canada",49.152802,-121.939003,NULL,NULL,NULL,NULL,NULL,NULL,1,NULL
40,"Clyde River Airport","YCY","Clyde River","Canada",70.486099,-68.516701,NULL,NULL,NULL,480,NULL,NULL,1,NULL
41,"Coral Harbour Airport","YZS","Coral Harbour","Canada",64.193298,-83.359398,NULL,NULL,NULL,2319,NULL,NULL,1,NULL
42,"Dawson City Airport","YDA","Dawson","Canada",64.043098,-139.128006,NULL,NULL,NULL,8670,NULL,NULL,1,NULL
43,"Burwash Airport","YDB","Burwash","Canada",61.371101,-139.041000,NULL,NULL,NULL,660,NULL,NULL,1,NULL
44,"Princeton Airport","\N","Princeton","Canada",49.468102,-120.511002,NULL,NULL,NULL,NULL,NULL,NULL,NULL,NULL
45,"Deer Lake Airport","YDF","Deer Lake","Canada",49.210800,-57.391399,8,5,NULL,NULL,NULL,NULL,1,NULL
46,"Dease Lake Airport","YDL","Dease Lake","Canada",58.422199,-130.031998,NULL,NULL,NULL,NULL,NULL,NULL,1,NULL
47,"Dauphin Barker Airport","YDN","Dauphin","Canada",51.100800,-100.052002,NULL,NULL,NULL,NULL,NULL,NULL,3,NULL
48,"Dawson Creek Airport","YDQ","Dawson Creek","Canada",55.742298,-120.182999,NULL,NULL,NULL,6650,NULL,NULL,1,NULL
49,"Edmonton International Airport","YEG","Edmonton","Canada",53.309700,-113.580002,44,11,7499163,118000,NULL,NULL,2,NULL
50,"Arviat Airport","YEK","Eskimo Point","Canada",61.094200,-94.070801,NULL,NULL,NULL,3041,NULL,NULL,1,NULL
51,"Estevan Airport","YEN","Estevan","Canada",49.210300,-102.966003,NULL,NULL,NULL,NULL,NULL,NULL,2,NULL
52,"Edson Airport","YET","Edson","Canada",53.578899,-116.464996,NULL,NULL,NULL,NULL,NULL,NULL,1,NULL
53,"Eureka Airport","YEU","Eureka","Canada",79.994698,-85.814201,NULL,NULL,NULL,NULL,NULL,NULL,1,NULL
54,"Inuvik Mike Zubko Airport","YEV","Inuvik","Canada",68.304199,-133.483002,6,3,NULL,15015,NULL,NULL,1,NULL
55,"Iqaluit Airport","YFB","Iqaluit","Canada",63.756402,-68.555801,14,2,120040,20178,NULL,NULL,1,NULL
56,"Fredericton Airport","YFC","Fredericton","Canada",45.868900,-66.537201,5,3,333813,NULL,NULL,NULL,2,NULL
57,"Forestville Airport","YFE","Forestville","Canada",48.746101,-69.097198,NULL,NULL,NULL,NULL,NULL,NULL,1,NULL
58,"Flin Flon Airport","YFO","Flin Flon","Canada",54.678101,-101.681999,NULL,NULL,NULL,6551,NULL,NULL,1,NULL
59,"Fort Resolution Airport","YFR","Fort Resolution","Canada",61.180801,-113.690002,NULL,NULL,NULL,323,NULL,NULL,1,NULL
60,"Fort Simpson Airport","YFS","Fort Simpson","Canada",61.760201,-121.237000,2,2,NULL,2373,NULL,NULL,1,NULL
61,"Kingston Norman Rogers Airport","YGK","Kingston","Canada",44.225300,-76.596901,NULL,NULL,NULL,37876,NULL,NULL,2,"1940-01-01"
62,"La Grande Rivière Airport","YGL","La Grande Riviere","Canada",53.625301,-77.704201,NULL,NULL,NULL,9343,NULL,NULL,1,NULL
63,"Gaspé (Michel-Pouliot) Airport","YGP","Gaspe","Canada",48.775299,-64.478600,NULL,NULL,NULL,NULL,NULL,NULL,1,NULL
64,"Geraldton Greenstone Regional Airport","YGQ","Geraldton","Canada",49.778301,-86.939400,NULL,NULL,NULL,NULL,NULL,NULL,1,NULL
65,"Îles-de-la-Madeleine Airport","YGR","Iles De La Madeleine","Canada",47.424702,-61.778099,5,4,NULL,4448,NULL,NULL,2,NULL
66,"Hudson Bay Airport","YHB","Hudson Bay","Canada",52.816700,-102.310997,NULL,NULL,NULL,NULL,NULL,NULL,1,NULL
67,"Dryden Regional Airport","YHD","Dryden","Canada",49.831699,-92.744202,NULL,NULL,NULL,12709,NULL,NULL,2,NULL
68,"Ulukhaktok Holman Airport","YHI","Holman Island","Canada",70.762802,-117.806000,NULL,NULL,NULL,NULL,NULL,NULL,1,NULL
69,"Gjoa Haven Airport","YHK","Gjoa Haven","Canada",68.635597,-95.849701,NULL,NULL,NULL,1908,NULL,NULL,1,NULL
70,"John C. Munro Hamilton International Airport","YHM","Hamilton","Canada",43.173599,-79.934998,6,2,820011,36419,NULL,NULL,2,NULL
71,"Montréal / Saint-Hubert Airport","YHU","Montreal","Canada",45.517502,-73.416901,3,2,NULL,NULL,NULL,NULL,3,NULL
72,"Hay River / Merlyn Carter Airport","YHY","Hay River","Canada",60.839699,-115.782997,1,2,NULL,NULL,NULL,NULL,2,NULL
73,"Halifax / Stanfield International Airport","YHZ","Halifax","Canada",44.880798,-63.508598,38,14,NULL,NULL,NULL,NULL,2,NULL
74,"Atikokan Municipal Airport","YIB","Atikokan","Canada",48.773899,-91.638603,NULL,NULL,NULL,NULL,NULL,NULL,1,NULL
75,"Pond Inlet Airport","YIO","Pond Inlet","Canada",72.683296,-77.966698,NULL,NULL,NULL,827,NULL,NULL,1,NULL
76,"St Jean Airport","YJN","St. Jean","Canada",45.294399,-73.281097,NULL,NULL,NULL,NULL,NULL,NULL,3,NULL
77,"Stephenville Airport","YJT","Stephenville","Canada",48.544201,-58.549999,NULL,NULL,NULL,104,NULL,NULL,2,NULL
78,"Kamloops Airport","YKA","Kamloops","Canada",50.702202,-120.444000,3,3,361586,2010,NULL,NULL,2,"1939-08-05"
79,"Waterloo Airport","YKF","Waterloo","Canada",43.460800,-80.378601,13,2,NULL,NULL,NULL,NULL,2,NULL
80,"Schefferville Airport","YKL","Schefferville","Canada",54.805302,-66.805298,NULL,NULL,NULL,NULL,NULL,NULL,1,NULL
81,"Kindersley Airport","YKY","Kindersley","Canada",51.517502,-109.181000,NULL,NULL,NULL,NULL,NULL,NULL,2,NULL
82,"Buttonville Municipal Airport","YKZ","Toronto","Canada",43.862202,-79.370003,NULL,NULL,NULL,44067,NULL,NULL,2,"1953-01-01"
83,"Chapleau Airport","YLD","Chapleau","Canada",47.820000,-83.346703,NULL,NULL,NULL,NULL,NULL,NULL,2,NULL
84,"Meadow Lake Airport","YLJ","Meadow Lake","Canada",54.125301,-108.523003,NULL,NULL,NULL,NULL,NULL,NULL,2,NULL
85,"Lloydminster Airport","YLL","Lloydminster","Canada",53.309200,-110.072998,NULL,NULL,NULL,14680,NULL,NULL,2,NULL
86,"Alert Airport","YLT","Alert","Canada",82.517799,-62.280602,NULL,NULL,NULL,NULL,NULL,NULL,1,NULL
87,"Kelowna International Airport","YLW","Kelowna","Canada",49.956100,-119.377998,20,7,2032624,NULL,NULL,NULL,1,NULL
88,"Mayo Airport","YMA","Mayo","Canada",63.616402,-135.867996,NULL,NULL,NULL,2908,NULL,NULL,1,NULL
89,"Moose Jaw Air Vice Marshal C. M. McEwen Airport","YMJ","Moose Jaw","Canada",50.330299,-105.558998,NULL,NULL,NULL,NULL,NULL,NULL,3,NULL
90,"Fort McMurray Airport","YMM","Fort Mcmurray","Canada",56.653301,-111.222000,3,2,367627,NULL,NULL,NULL,1,NULL
91,"Moosonee Airport","YMO","Moosonee","Canada",51.291100,-80.607803,3,2,NULL,23981,NULL,NULL,2,NULL
92,"Maniwaki Airport","YMW","Maniwaki","Canada",46.272800,-75.990601,NULL,NULL,NULL,NULL,NULL,NULL,1,NULL
93,"Montreal International (Mirabel) Airport","YMX","Montreal","Canada",45.679501,-74.038696,NULL,NULL,NULL,NULL,NULL,NULL,2,NULL
94,"Natashquan Airport","YNA","Natashquan","Canada",50.189999,-61.789200,NULL,NULL,NULL,3108,NULL,NULL,1,NULL
95,"Ottawa / Gatineau Airport","YND","Gatineau","Canada",45.521702,-75.563599,NULL,NULL,NULL,NULL,NULL,NULL,1,NULL
96,"Matagami Airport","YNM","Matagami","Canada",49.761700,-77.802803,NULL,NULL,NULL,NULL,NULL,NULL,1,NULL
97,"Old Crow Airport","YOC","Old Crow","Canada",67.570602,-139.839005,NULL,NULL,NULL,1281,NULL,NULL,1,NULL
98,"CFB Cold Lake","YOD","Cold Lake","Canada",54.404999,-110.278999,NULL,NULL,NULL,NULL,NULL,NULL,3,NULL
99,"High Level Airport","YOJ","High Level","Canada",58.621399,-117.165001,NULL,NULL,NULL,13279,NULL,NULL,1,NULL
100,"Ottawa Macdonald-Cartier International Airport","YOW","Ottawa","Canada",45.322498,-75.669197,32,9,4095914,64797,NULL,NULL,3,NULL
101,"Prince Albert Glass Field","YPA","Prince Albert","Canada",53.214199,-105.672997,NULL,NULL,NULL,NULL,NULL,NULL,2,NULL
102,"Peace River Airport","YPE","Peace River","Canada",56.226898,-117.446999,NULL,NULL,NULL,8687,NULL,NULL,1,NULL
103,"Southport Airport","YPG","Portage-la-prairie","Canada",49.903099,-98.273817,NULL,NULL,NULL,NULL,NULL,NULL,4,NULL
104,"Pitt Meadows Airport","\N","Pitt Meadows","Canada",49.216099,-122.709999,NULL,NULL,NULL,112872,NULL,NULL,3,NULL
105,"Pickle Lake Airport","YPL","Pickle Lake","Canada",51.446400,-90.214203,NULL,NULL,NULL,18698,NULL,NULL,1,NULL
106,"Port Menier Airport","YPN","Port Menier","Canada",49.836399,-64.288597,NULL,NULL,NULL,NULL,NULL,NULL,1,NULL
107,"Peterborough Airport","YPQ","Peterborough","Canada",44.230000,-78.363297,NULL,NULL,NULL,45800,NULL,NULL,2,NULL
108,"Prince Rupert Airport","YPR","Prince Pupert","Canada",54.286098,-130.445007,NULL,NULL,60914,2164,NULL,NULL,1,NULL
109,"Fort Chipewyan Airport","YPY","Fort Chipewyan","Canada",58.767200,-111.116997,NULL,NULL,NULL,NULL,NULL,NULL,1,NULL
110,"Muskoka Airport","YQA","Muskoka","Canada",44.974701,-79.303299,NULL,NULL,NULL,16417,NULL,NULL,2,"1936-01-01"
111,"Quebec Jean Lesage International Airport","YQB","Quebec","Canada",46.791100,-71.393303,32,13,NULL,NULL,NULL,NULL,2,NULL
112,"Red Deer Regional Airport","YQF","Red Deer Industrial","Canada",52.182201,-113.893997,NULL,NULL,NULL,75918,NULL,NULL,2,NULL
113,"Windsor Airport","YQG","Windsor","Canada",42.275600,-82.955597,3,3,330000,42700,NULL,NULL,2,NULL
114,"Watson Lake Airport","YQH","Watson Lake","Canada",60.116402,-128.822006,NULL,NULL,NULL,4602,NULL,NULL,1,NULL
115,"Kenora Airport","YQK","Kenora","Canada",49.788300,-94.363098,NULL,NULL,NULL,13957,NULL,NULL,1,NULL
116,"Lethbridge County Airport","YQL","Lethbridge","Canada",49.630299,-112.800003,NULL,NULL,NULL,NULL,NULL,NULL,2,"1939-01-01"
117,"Greater Moncton International Airport","YQM","Moncton","Canada",46.112202,-64.678596,12,5,600121,NULL,NULL,NULL,2,NULL
118,"Comox Airport","YQQ","Comox","Canada",49.710800,-124.887001,7,4,NULL,20244,NULL,NULL,2,NULL
119,"Regina International Airport","YQR","Regina","Canada",50.431900,-104.666000,13,2,981845,NULL,NULL,NULL,2,NULL
120,"Thunder Bay Airport","YQT","Thunder Bay","Canada",48.371899,-89.323898,8,6,714070,69347,NULL,NULL,2,NULL
121,"Grande Prairie Airport","YQU","Grande Prairie","Canada",55.179699,-118.885002,2,2,NULL,40651,NULL,NULL,2,NULL
122,"Yorkton Municipal Airport","YQV","Yorkton","Canada",51.264702,-102.461998,NULL,NULL,NULL,8108,NULL,NULL,2,NULL
123,"North Battleford Airport","YQW","North Battleford","Canada",52.769199,-108.244003,NULL,NULL,NULL,9,NULL,NULL,2,NULL
124,"Gander International Airport","YQX","Gander","Canada",48.936901,-54.568100,6,2,104533,33215,NULL,NULL,2,NULL
125,"Sydney / J.A. Douglas McCurdy Airport","YQY","Sydney","Canada",46.161400,-60.047798,NULL,NULL,NULL,NULL,NULL,NULL,2,NULL
126,"Quesnel Airport","YQZ","Quesnel","Canada",53.026100,-122.510002,NULL,NULL,NULL,NULL,NULL,NULL,1,NULL
127,"Resolute Bay Airport","YRB","Resolute","Canada",74.716904,-94.969398,NULL,NULL,NULL,3275,NULL,NULL,1,NULL
128,"Rivière-du-Loup Airport","YRI","Riviere Du Loup","Canada",47.764400,-69.584702,NULL,NULL,NULL,NULL,NULL,NULL,1,NULL
129,"Roberval Airport","YRJ","Roberval","Canada",48.520000,-72.265602,NULL,NULL,NULL,NULL,NULL,NULL,1,NULL
130,"Rocky Mountain House Airport","YRM","Rocky Mountain House","Canada",52.429699,-114.903999,NULL,NULL,NULL,NULL,NULL,NULL,1,NULL
131,"Rankin Inlet Airport","YRT","Rankin Inlet","Canada",62.811401,-92.115799,9,2,NULL,13071,NULL,NULL,1,NULL
132,"Sudbury Airport","YSB","Sudbury","Canada",46.625000,-80.798897,5,3,66638,NULL,NULL,NULL,2,NULL
133,"Sherbrooke Airport","YSC","Sherbrooke","Canada",45.438599,-71.691399,NULL,NULL,NULL,12219,NULL,NULL,1,NULL
134,"Saint John Airport","YSJ","St. John","Canada",45.316101,-65.890297,3,2,175100,11281,NULL,NULL,2,"1952-01-08"
135,"Fort Smith Airport","YSM","Fort Smith","Canada",60.020302,-111.961998,NULL,NULL,NULL,1944,NULL,NULL,2,NULL
136,"Nanisivik Airport","YSR","Nanisivik","Canada",72.982201,-84.613602,NULL,NULL,NULL,464,NULL,NULL,0,NULL
137,"Summerside Airport","YSU","Summerside","Canada",46.440601,-63.833599,NULL,NULL,NULL,NULL,NULL,NULL,1,NULL
138,"Sachs Harbour (David Nasogaluak Jr. Saaryuaq) Airport","YSY","Sachs Harbour","Canada",71.993896,-125.242996,NULL,NULL,NULL,62,NULL,NULL,1,NULL
139,"Cape Dorset Airport","YTE","Cape Dorset","Canada",64.230003,-76.526703,NULL,NULL,NULL,1016,NULL,NULL,1,NULL
140,"Thompson Airport","YTH","Thompson","Canada",55.801102,-97.864197,NULL,NULL,NULL,36217,NULL,NULL,2,NULL
141,"CFB Trenton","YTR","Trenton","Canada",44.118900,-77.528099,NULL,NULL,NULL,NULL,NULL,NULL,1,NULL
142,"Timmins/Victor M. Power","YTS","Timmins","Canada",48.569698,-81.376701,3,4,NULL,NULL,NULL,NULL,2,NULL
143,"Billy Bishop Toronto City Centre Airport","YTZ","Toronto","Canada",43.627499,-79.396202,15,2,NULL,NULL,NULL,NULL,3,NULL
144,"Tuktoyaktuk Airport","YUB","Tuktoyaktuk","Canada",69.433296,-133.026001,NULL,NULL,NULL,2356,NULL,NULL,1,NULL
145,"Montreal / Pierre Elliott Trudeau International Airport","YUL","Montreal","Canada",45.470600,-73.740799,150,35,NULL,NULL,NULL,NULL,3,NULL
146,"Repulse Bay Airport","YUT","Repulse Bay","Canada",66.521400,-86.224701,NULL,NULL,NULL,1617,NULL,NULL,1,NULL
147,"Hall Beach Airport","YUX","Hall Beach","Canada",68.776100,-81.242500,NULL,NULL,NULL,2796,NULL,NULL,1,NULL
148,"Rouyn Noranda Airport","YUY","Rouyn","Canada",48.206100,-78.835602,3,2,NULL,NULL,NULL,NULL,1,NULL
149,"La Ronge Airport","YVC","La Ronge","Canada",55.151402,-105.262001,NULL,NULL,NULL,18230,NULL,NULL,2,NULL
150,"Vermilion Airport","YVG","Vermillion","Canada",53.355801,-110.823997,NULL,NULL,NULL,NULL,NULL,NULL,1,NULL
151,"Qikiqtarjuaq Airport","YVM","Broughton Island","Canada",67.545799,-64.031403,NULL,NULL,NULL,1039,NULL,NULL,1,NULL
152,"Val-d'Or Airport","YVO","Val D'or","Canada",48.053299,-77.782799,3,2,NULL,20550,NULL,NULL,1,NULL
153,"Kuujjuaq Airport","YVP","Quujjuaq","Canada",58.096100,-68.426903,8,2,NULL,12485,NULL,NULL,2,NULL
154,"Norman Wells Airport","YVQ","Norman Wells","Canada",65.281601,-126.797997,5,2,NULL,13885,NULL,NULL,1,NULL
155,"Vancouver International Airport","YVR","Vancouver","Canada",49.193901,-123.183998,115,39,24938184,284404,NULL,NULL,3,"1931-07-22"
156,"Buffalo Narrows Airport","YVT","Buffalo Narrows","Canada",55.841900,-108.417999,NULL,NULL,NULL,7400,NULL,NULL,2,NULL
157,"Wiarton Airport","YVV","Wiarton","Canada",44.745800,-81.107201,NULL,NULL,NULL,NULL,NULL,NULL,2,NULL
158,"Petawawa Airport","YWA","Petawawa","Canada",45.952202,-77.319199,NULL,NULL,NULL,NULL,NULL,NULL,3,NULL
159,"Winnipeg / James Armstrong Richardson International Airport","YWG","Winnipeg","Canada",49.910000,-97.239899,37,9,NULL,NULL,NULL,NULL,2,NULL
160,"Wabush Airport","YWK","Wabush","Canada",52.921902,-66.864403,NULL,NULL,NULL,11663,NULL,NULL,1,NULL
161,"Williams Lake Airport","YWL","Williams Lake","Canada",52.183102,-122.054001,1,2,NULL,13854,NULL,NULL,1,NULL
162,"Wrigley Airport","YWY","Wrigley","Canada",63.209400,-123.436996,NULL,NULL,NULL,157,NULL,NULL,1,NULL
163,"Cranbrook/Canadian Rockies International Airport","YXC","Cranbrook","Canada",49.610802,-115.781998,2,2,NULL,15060,NULL,NULL,1,NULL
164,"Edmonton City Centre (Blatchford Field) Airport","YXD","Edmonton","Canada",53.572498,-113.521004,NULL,NULL,NULL,55863,NULL,NULL,2,"1927-01-01"
165,"Saskatoon John G. Diefenbaker International Airport","YXE","Saskatoon","Canada",52.170799,-106.699997,17,5,952051,78913,NULL,NULL,2,NULL
166,"Medicine Hat Airport","YXH","Medicine Hat","Canada",50.018902,-110.721001,NULL,NULL,NULL,21485,NULL,NULL,2,NULL
167,"Fort St John Airport","YXJ","Fort Saint John","Canada",56.238098,-120.739998,2,2,NULL,28939,NULL,NULL,2,NULL
168,"Sioux Lookout Airport","YXL","Sioux Lookout","Canada",50.113899,-91.905296,17,2,NULL,28564,NULL,NULL,1,NULL
169,"Pangnirtung Airport","YXP","Pangnirtung","Canada",66.144997,-65.713600,NULL,NULL,NULL,2049,NULL,NULL,1,NULL
170,"Earlton (Timiskaming Regional) Airport","YXR","Earlton","Canada",47.697401,-79.847345,NULL,NULL,NULL,NULL,NULL,NULL,2,NULL
171,"Prince George Airport","YXS","Prince George","Canada",53.889400,-122.679001,8,4,NULL,43865,NULL,NULL,3,NULL
172,"Northwest Regional Airport Terrace-Kitimat","YXT","Terrace","Canada",54.468498,-128.576009,3,3,NULL,20079,NULL,NULL,2,NULL
173,"London Airport","YXU","London","Canada",43.035599,-81.153900,6,4,NULL,NULL,NULL,NULL,2,NULL
174,"Abbotsford Airport","YXX","Abbotsford","Canada",49.025299,-122.361000,5,2,1275484,2022,NULL,NULL,2,NULL
175,"Whitehorse / Erik Nielsen International Airport","YXY","Whitehorse","Canada",60.709599,-135.067001,8,3,NULL,NULL,NULL,NULL,3,NULL
176,"North Bay Jack Garland Airport","YYB","North Bay","Canada",46.363602,-79.422798,2,2,NULL,45177,NULL,NULL,3,NULL
177,"Calgary International Airport","YYC","Calgary","Canada",51.113899,-114.019997,96,13,18490283,NULL,NULL,NULL,4,NULL
178,"Smithers Airport","YYD","Smithers","Canada",54.824699,-127.182999,NULL,NULL,NULL,9494,NULL,NULL,1,NULL
179,"Fort Nelson Airport","YYE","Fort Nelson","Canada",58.836399,-122.597000,NULL,NULL,NULL,21371,NULL,NULL,2,NULL
180,"Penticton Airport","YYF","Penticton","Canada",49.463100,-119.601997,2,2,80000,34946,NULL,NULL,1,NULL
181,"Charlottetown Airport","YYG","Charlottetown","Canada",46.290001,-63.121101,6,4,316628,13343,NULL,NULL,2,NULL
182,"Taloyoak Airport","YYH","Spence Bay","Canada",69.546700,-93.576698,NULL,NULL,NULL,1929,NULL,NULL,1,NULL
183,"Victoria International Airport","YYJ","Victoria","Canada",48.646900,-123.426003,16,8,1740107,108034,NULL,NULL,3,NULL
184,"Lynn Lake Airport","YYL","Lynn Lake","Canada",56.863899,-101.075996,NULL,NULL,NULL,NULL,NULL,NULL,2,NULL
185,"Swift Current Airport","YYN","Swift Current","Canada",50.291901,-107.691002,NULL,NULL,NULL,4,NULL,NULL,2,NULL
186,"Churchill Airport","YYQ","Churchill","Canada",58.739201,-94.065002,NULL,NULL,NULL,10329,NULL,NULL,2,NULL
187,"Goose Bay Airport","YYR","Goose Bay","Canada",53.319199,-60.425800,11,2,NULL,NULL,NULL,NULL,2,NULL
188,"St. John's International Airport","YYT","St. John's","Canada",47.618599,-52.751900,15,6,1260000,31701,NULL,NULL,3,NULL
189,"Kapuskasing Airport","YYU","Kapuskasing","Canada",49.413898,-82.467499,NULL,NULL,NULL,5170,NULL,NULL,2,NULL
190,"Armstrong Airport","YYW","Armstrong","Canada",50.290298,-88.909698,NULL,NULL,NULL,NULL,NULL,NULL,1,NULL
191,"Mont Joli Airport","YYY","Mont Joli","Canada",48.608601,-68.208099,NULL,NULL,NULL,NULL,NULL,NULL,2,NULL
192,"Lester B. Pearson International Airport","YYZ","Toronto","Canada",43.677200,-79.630600,186,49,44800000,638577,NULL,NULL,5,"1938-08-29"
193,"Downsview Airport","YZD","Toronto","Canada",43.742500,-79.465599,NULL,NULL,NULL,NULL,NULL,NULL,1,"1929-01-01"
194,"Gore Bay Manitoulin Airport","YZE","Gore Bay","Canada",45.885300,-82.567802,NULL,NULL,NULL,NULL,NULL,NULL,2,NULL
195,"Yellowknife Airport","YZF","Yellowknife","Canada",62.462799,-114.440002,24,6,NULL,52881,NULL,NULL,2,NULL
196,"Slave Lake Airport","YZH","Slave Lake","Canada",55.293098,-114.777000,NULL,NULL,NULL,NULL,NULL,NULL,1,NULL
197,"Sandspit Airport","YZP","Sandspit","Canada",53.254299,-131.813995,NULL,NULL,NULL,4419,NULL,NULL,1,NULL
198,"Chris Hadfield Airport","YZR","Sarnia","Canada",42.999401,-82.308899,NULL,NULL,NULL,NULL,NULL,NULL,2,NULL
199,"Port Hardy Airport","YZT","Port Hardy","Canada",50.680599,-127.366997,NULL,NULL,NULL,10194,NULL,NULL,3,NULL
200,"Whitecourt Airport","YZU","Whitecourt","Canada",54.143902,-115.787003,NULL,NULL,NULL,18917,NULL,NULL,1,NULL
201,"Sept-Îles Airport","YZV","Sept-iles","Canada",50.223301,-66.265602,10,4,106108,29922,NULL,NULL,2,NULL
202,"Teslin Airport","YZW","Teslin","Canada",60.172798,-132.742996,NULL,NULL,NULL,345,NULL,NULL,1,NULL
203,"CFB Greenwood","YZX","Greenwood","Canada",44.984402,-64.916901,NULL,NULL,NULL,NULL,NULL,NULL,2,NULL
204,"Faro Airport","ZFA","Faro","Canada",62.207500,-133.376007,88,32,9640000,62709,NULL,NULL,1,NULL
205,"Fort Mcpherson Airport","ZFM","Fort Mcpherson","Canada",67.407501,-134.860992,NULL,NULL,NULL,NULL,NULL,NULL,1,NULL
206,"Blida Airport","QLD","Blida","Algeria",36.503601,2.814170,NULL,NULL,NULL,NULL,NULL,NULL,1,NULL
207,"Bou Saada Airport","BUJ","Bou Saada","Algeria",35.332500,4.206390,NULL,NULL,NULL,NULL,NULL,NULL,1,NULL
208,"Soummam Airport","BJA","Bejaja","Algeria",36.712002,5.069920,6,4,294933,3664,NULL,NULL,1,NULL
209,"Houari Boumediene Airport","ALG","Algier","Algeria",36.691002,3.215410,78,23,7500000,NULL,NULL,NULL,2,"1924-01-01"
210,"Djanet Inedbirene Airport","DJG","Djanet","Algeria",24.292801,9.452440,NULL,NULL,NULL,NULL,NULL,NULL,2,NULL
211,"Boufarik Airport","\N","Boufarik","Algeria",36.545799,2.876110,NULL,NULL,NULL,NULL,NULL,NULL,1,NULL
212,"Reggane Airport","\N","Reggan","Algeria",26.710100,0.285647,NULL,NULL,NULL,NULL,NULL,NULL,2,NULL
213,"Illizi Takhamalt Airport","VVZ","Illizi","Algeria",26.723499,8.622650,NULL,NULL,NULL,NULL,NULL,NULL,1,NULL
214,"Ain Oussera Airport","\N","Ain Oussera","Algeria",35.525398,2.878710,NULL,NULL,NULL,NULL,NULL,NULL,2,NULL
215,"Aguenar – Hadj Bey Akhamok Airport","TMR","Tamanrasset","Algeria",22.811501,5.451080,13,2,70515,2402,NULL,NULL,2,NULL
216,"Jijel Ferhat Abbas Airport","GJL","Jijel","Algeria",36.795101,5.873610,NULL,NULL,NULL,NULL,NULL,NULL,1,NULL
217,"Mecheria Airport","MZW","Mecheria","Algeria",33.535900,-0.242353,NULL,NULL,NULL,NULL,NULL,NULL,2,NULL
218,"Relizane Airport","\N","Relizane","Algeria",35.752201,0.626272,NULL,NULL,NULL,NULL,NULL,NULL,1,NULL
219,"Rabah Bitat Airport","AAE","Annaba","Algeria",36.822201,7.809174,10,4,NULL,NULL,NULL,NULL,2,NULL
220,"Mohamed Boudiaf International Airport","CZL","Constantine","Algeria",36.276001,6.620390,27,6,NULL,NULL,NULL,NULL,2,NULL
221,"Cheikh Larbi Tébessi Airport","TEE","Tebessa","Algeria",35.431599,8.120720,NULL,NULL,NULL,NULL,NULL,NULL,2,NULL
222,"Hassi R'Mel Airport","HRM","Tilrempt","Algeria",32.930401,3.311540,NULL,NULL,NULL,NULL,NULL,NULL,2,NULL
223,"Bou Chekif Airport","TID","Tiaret","Algeria",35.341099,1.463150,NULL,NULL,NULL,NULL,NULL,NULL,1,NULL
224,"Bou Sfer Airport","\N","Bou Sfer","Algeria",35.735401,-0.805389,NULL,NULL,NULL,NULL,NULL,NULL,NULL,NULL
225,"Tindouf Airport","TIN","Tindouf","Algeria",27.700399,-8.167100,NULL,NULL,50976,1650,NULL,NULL,1,NULL
226,"Ech Cheliff Airport","CFK","Ech-cheliff","Algeria",36.212700,1.331770,NULL,NULL,NULL,NULL,NULL,NULL,2,NULL
227,"Tafaraoui Airport","TAF","Oran","Algeria",35.542400,-0.532278,NULL,NULL,NULL,NULL,NULL,NULL,1,NULL
228,"Zenata – Messali El Hadj Airport","TLM","Tlemcen","Algeria",35.016701,-1.450000,5,3,137907,2206,NULL,NULL,1,NULL
229,"Es Senia Airport","ORN","Oran","Algeria",35.623901,-0.621183,32,9,1085753,15323,NULL,NULL,2,NULL
230,"Sidi Bel Abbes Airport","BFW","Sidi Bel Abbes","Algeria",35.171799,-0.593275,NULL,NULL,NULL,NULL,NULL,NULL,1,NULL
231,"Ghriss Airport","MUW","Ghriss","Algeria",35.207699,0.147142,NULL,NULL,NULL,NULL,NULL,NULL,1,NULL
232,"Touat Cheikh Sidi Mohamed Belkebir Airport","AZR","Adrar","Algeria",27.837601,-0.186414,9,2,92197,2047,NULL,NULL,1,NULL
233,"Biskra Airport","BSK","Biskra","Algeria",34.793301,5.738230,4,2,NULL,NULL,NULL,NULL,1,NULL
234,"El Golea Airport","ELG","El Golea","Algeria",30.571301,2.859590,NULL,NULL,NULL,NULL,NULL,NULL,2,NULL
235,"Noumérat - Moufdi Zakaria Airport","GHA","Ghardaia","Algeria",32.384102,3.794110,NULL,NULL,45794,2436,NULL,NULL,2,NULL
236,"Oued Irara Airport","HME","Hassi Messaoud","Algeria",31.673000,6.140440,NULL,NULL,450929,24174,NULL,NULL,1,NULL
237,"In Salah Airport","INZ","In Salah","Algeria",27.250999,2.512020,3,2,NULL,NULL,NULL,NULL,1,NULL
238,"Touggourt Sidi Madhi Airport","TGR","Touggourt","Algeria",33.067799,6.088670,NULL,NULL,NULL,NULL,NULL,NULL,1,NULL
239,"Laghouat Airport","LOO","Laghouat","Algeria",33.764400,2.928340,NULL,NULL,NULL,NULL,NULL,NULL,2,NULL
240,"Timimoun Airport","TMX","Timimoun","Algeria",29.237101,0.276033,NULL,NULL,27961,973,NULL,NULL,1,NULL
241,"Ain el Beida Airport","OGX","Ouargla","Algeria",31.917200,5.412780,NULL,NULL,NULL,NULL,NULL,NULL,2,NULL
242,"In Aménas Airport","IAM","Zarzaitine","Algeria",28.051500,9.642910,NULL,NULL,145070,3627,NULL,NULL,2,NULL
243,"Cadjehoun Airport","COO","Cotonou","Benin",6.357230,2.384350,17,15,NULL,NULL,NULL,NULL,1,NULL
244,"Ouagadougou Airport","OUA","Ouagadougou","Burkina Faso",12.353200,-1.512420,18,11,245280,NULL,NULL,NULL,2,NULL
245,"Bobo Dioulasso Airport","BOY","Bobo-dioulasso","Burkina Faso",11.160100,-4.330970,NULL,NULL,18220,NULL,NULL,NULL,1,NULL
246,"Kotoka International Airport","ACC","Accra","Ghana",5.605190,-0.166786,32,25,3095676,NULL,NULL,NULL,1,NULL
247,"Tamale Airport","TML","Tamale","Ghana",9.557190,-0.863214,2,2,217958,NULL,NULL,NULL,1,NULL
248,"Wa Airport","\N","Wa","Ghana",10.082700,-2.507690,NULL,NULL,25875,NULL,NULL,NULL,1,NULL
249,"Sunyani Airport","NYI","Sunyani","Ghana",7.361830,-2.328760,NULL,NULL,NULL,NULL,NULL,NULL,1,NULL
250,"Takoradi Airport","TKD","Takoradi","Ghana",4.896060,-1.774760,1,2,NULL,NULL,NULL,NULL,1,NULL
251,"Port Bouet Airport","ABJ","Abidjan","Cote d'Ivoire",5.261390,-3.926290,37,21,2331917,NULL,NULL,NULL,1,NULL
252,"Bouaké Airport","BYK","Bouake","Cote d'Ivoire",7.738800,-5.073670,NULL,NULL,NULL,NULL,NULL,NULL,1,NULL
253,"Daloa Airport","DJO","Daloa","Cote d'Ivoire",6.792810,-6.473190,NULL,NULL,NULL,NULL,NULL,NULL,1,NULL
254,"Korhogo Airport","HGO","Korhogo","Cote d'Ivoire",9.387180,-5.556660,NULL,NULL,NULL,NULL,NULL,NULL,1,NULL
255,"Man Airport","MJC","Man","Cote d'Ivoire",7.272070,-7.587360,NULL,NULL,NULL,NULL,NULL,NULL,1,NULL
256,"San Pedro Airport","SPY","San Pedro","Cote d'Ivoire",4.746720,-6.660820,4,2,NULL,NULL,NULL,NULL,1,NULL
257,"Yamoussoukro Airport","ASK","Yamoussoukro","Cote d'Ivoire",6.903170,-5.365580,NULL,NULL,NULL,NULL,NULL,NULL,1,NULL
258,"Nnamdi Azikiwe International Airport","ABV","Abuja","Nigeria",9.006790,7.263170,35,20,5323905,NULL,NULL,NULL,1,NULL
259,"Akure Airport","AKR","Akure","Nigeria",7.246740,5.301010,2,3,NULL,NULL,NULL,NULL,1,NULL
260,"Benin Airport","BNI","Benin","Nigeria",6.316980,5.599500,2,5,NULL,NULL,NULL,NULL,1,NULL
261,"Margaret Ekpo International Airport","CBQ","Calabar","Nigeria",4.976020,8.347200,2,2,189908,NULL,NULL,NULL,1,NULL
262,"Akanu Ibiam International Airport","ENU","Enugu","Nigeria",6.474270,7.561960,3,5,352820,NULL,NULL,NULL,1,NULL
263,"Gusau Airport","\N","Gusau","Nigeria",12.171700,6.696110,NULL,NULL,NULL,NULL,NULL,NULL,NULL,NULL
264,"Ibadan Airport","IBA","Ibadan","Nigeria",7.362460,3.978330,2,3,NULL,NULL,NULL,NULL,1,NULL
265,"Ilorin International Airport","ILR","Ilorin","Nigeria",8.440210,4.493920,2,3,NULL,NULL,NULL,NULL,1,NULL
266,"Yakubu Gowon Airport","JOS","Jos","Nigeria",9.639830,8.869050,NULL,NULL,NULL,NULL,NULL,NULL,1,NULL
267,"Kaduna Airport","KAD","Kaduna","Nigeria",10.696000,7.320110,2,2,NULL,NULL,NULL,NULL,1,NULL
268,"Mallam Aminu International Airport","KAN","Kano","Nigeria",12.047600,8.524620,5,9,389530,NULL,NULL,NULL,2,NULL
269,"Maiduguri International Airport","MIU","Maiduguri","Nigeria",11.855300,13.080900,1,2,NULL,NULL,NULL,NULL,1,NULL
270,"Makurdi Airport","MDI","Makurdi","Nigeria",7.703880,8.613940,NULL,NULL,NULL,NULL,NULL,NULL,1,NULL
271,"Murtala Muhammed International Airport","LOS","Lagos","Nigeria",6.577370,3.321160,48,29,5689234,NULL,NULL,NULL,2,NULL
272,"Minna Airport","MXJ","Minna","Nigeria",9.652170,6.462260,NULL,NULL,NULL,NULL,NULL,NULL,1,NULL
273,"Port Harcourt International Airport","PHC","Port Hartcourt","Nigeria",5.015490,6.949590,3,9,1223807,NULL,NULL,NULL,1,NULL
274,"Sadiq Abubakar III International Airport","SKO","Sokoto","Nigeria",12.916300,5.207190,2,4,NULL,NULL,NULL,NULL,1,NULL
275,"Yola Airport","YOL","Yola","Nigeria",9.257550,12.430400,1,3,158896,NULL,NULL,NULL,2,NULL
276,"Zaria Airport","ZAR","Zaria","Nigeria",11.130200,7.685810,NULL,NULL,NULL,NULL,NULL,NULL,1,NULL
277,"Maradi Airport","MFQ","Maradi","Niger",13.502500,7.126750,NULL,NULL,NULL,NULL,NULL,NULL,1,NULL
278,"Diori Hamani International Airport","NIM","Niamey","Niger",13.481500,2.183610,15,11,165000,NULL,NULL,NULL,2,NULL
279,"Tahoua Airport","THZ","Tahoua","Niger",14.875700,5.265360,NULL,NULL,NULL,NULL,NULL,NULL,1,NULL
280,"Mano Dayak International Airport","AJY","Agadez","Niger",16.966000,8.000110,NULL,NULL,NULL,NULL,NULL,NULL,1,NULL
281,"Dirkou Airport","\N","Dirkou","Niger",18.968700,12.868700,NULL,NULL,NULL,NULL,NULL,NULL,1,NULL
282,"Diffa Airport","\N","Diffa","Niger",13.372900,12.626700,NULL,NULL,NULL,NULL,NULL,NULL,1,NULL
283,"Zinder Airport","ZND","Zinder","Niger",13.779000,8.983760,NULL,NULL,NULL,NULL,NULL,NULL,1,NULL
284,"Monastir Habib Bourguiba International Airport","MIR","Monastir","Tunisia",35.758099,10.754700,20,8,1560000,NULL,NULL,NULL,1,NULL
285,"Tunis Carthage International Airport","TUN","Tunis","Tunisia",36.851002,10.227200,64,26,6649912,NULL,NULL,NULL,2,NULL
286,"Sidi Ahmed Air Base","\N","Bizerte","Tunisia",37.245398,9.791450,NULL,NULL,NULL,NULL,NULL,NULL,NULL,NULL
287,"Remada Air Base","\N","Remada","Tunisia",32.306198,10.382100,NULL,NULL,NULL,NULL,NULL,NULL,1,NULL
288,"Gafsa Ksar International Airport","GAF","Gafsa","Tunisia",34.422001,8.822500,NULL,NULL,NULL,NULL,NULL,NULL,1,NULL
289,"Gabès Matmata International Airport","GAE","Gabes","Tunisia",33.876900,10.103300,NULL,NULL,NULL,NULL,NULL,NULL,1,NULL
290,"Borj El Amri Airport","\N","Bordj El Amri","Tunisia",36.721298,9.943150,NULL,NULL,NULL,NULL,NULL,NULL,1,NULL
291,"Djerba Zarzis International Airport","DJE","Djerba","Tunisia",33.875000,10.775500,32,14,NULL,NULL,NULL,NULL,1,NULL
292,"El Borma Airport","EBM","El Borma","Tunisia",31.704300,9.254620,NULL,NULL,NULL,NULL,NULL,NULL,1,NULL
293,"Sfax Thyna International Airport","SFA","Sfax","Tunisia",34.717999,10.691000,3,2,NULL,NULL,NULL,NULL,1,NULL
294,"Tozeur Nefta International Airport","TOE","Tozeur","Tunisia",33.939701,8.110560,2,2,NULL,NULL,NULL,NULL,1,NULL
295,"Niamtougou International Airport","LRL","Niatougou","Togo",9.767330,1.091250,NULL,NULL,NULL,NULL,NULL,NULL,1,NULL
296,"Lomé-Tokoin Airport","LFW","Lome","Togo",6.165610,1.254510,23,9,616800,NULL,NULL,NULL,1,NULL
297,"Antwerp International Airport (Deurne)","ANR","Antwerp","Belgium",51.189400,4.460280,15,2,NULL,NULL,NULL,NULL,1,NULL
298,"Beauvechain Air Base","\N","Beauvechain","Belgium",50.758598,4.768330,NULL,NULL,NULL,NULL,NULL,NULL,4,NULL
299,"Kleine Brogel Air Base","\N","Kleine Brogel","Belgium",51.168301,5.470000,NULL,NULL,NULL,NULL,NULL,NULL,4,NULL
300,"Brussels Airport","BRU","Brussels","Belgium",50.901402,4.484440,172,63,26360003,234460,NULL,NULL,3,NULL
301,"Jehonville Air Base","\N","Bertrix","Belgium",49.891701,5.223890,NULL,NULL,NULL,NULL,NULL,NULL,1,NULL
302,"Brussels South Charleroi Airport","CRL","Charleroi","Belgium",50.459202,4.453820,128,7,8224196,NULL,NULL,NULL,1,NULL
303,"Chièvres Air Base","\N","Chievres","Belgium",50.575802,3.831000,NULL,NULL,NULL,NULL,NULL,NULL,2,NULL
304,"Koksijde Air Base","\N","Koksijde","Belgium",51.090302,2.652780,NULL,NULL,NULL,NULL,NULL,NULL,3,NULL
305,"Florennes Air Base","\N","Florennes","Belgium",50.243301,4.645830,NULL,NULL,NULL,NULL,NULL,NULL,4,NULL
306,"Wevelgem Airport","KJK","Kortrijk-vevelgem","Belgium",50.817200,3.204720,NULL,NULL,NULL,NULL,NULL,NULL,1,NULL
307,"Liège Airport","LGG","Liege","Belgium",50.637402,5.443220,NULL,NULL,299,NULL,NULL,NULL,2,NULL
308,"Ostend-Bruges International Airport","OST","Ostend","Belgium",51.198898,2.862220,NULL,NULL,386387,NULL,NULL,NULL,2,NULL
309,"Zutendaal Air Base","\N","Zutendaal","Belgium",50.947498,5.590560,NULL,NULL,NULL,NULL,NULL,NULL,2,NULL
310,"Brustem Airfield Sint Truiden","\N","Sint-truiden","Belgium",50.791901,5.201670,NULL,NULL,NULL,NULL,NULL,NULL,NULL,NULL
311,"Saint Hubert Air Base","\N","St.-hubert","Belgium",50.034401,5.440810,NULL,NULL,NULL,NULL,NULL,NULL,NULL,NULL
312,"Ursel Air Base","\N","Ursel","Belgium",51.144199,3.475560,NULL,NULL,NULL,NULL,NULL,NULL,1,NULL
313,"Weelde Air Base","\N","Weelde","Belgium",51.394798,4.960190,NULL,NULL,NULL,NULL,NULL,NULL,1,NULL
314,"Zoersel (Oostmalle) Airfield","OBL","Zoersel","Belgium",51.264702,4.753330,NULL,NULL,NULL,NULL,NULL,NULL,1,NULL
315,"Flugplatz Bautzen","\N","Bautzen","Germany",51.193611,14.519722,NULL,NULL,NULL,NULL,NULL,NULL,NULL,NULL
316,"Altenburg-Nobitz Airport","AOC","Altenburg","Germany",50.981945,12.506389,NULL,NULL,NULL,NULL,NULL,NULL,1,NULL
317,"Dessau Airfield","\N","Dessau","Germany",51.831694,12.190962,NULL,NULL,NULL,NULL,NULL,NULL,NULL,NULL
318,"Eisenhüttenstadt Airfield","\N","Eisenhuettenstadt","Germany",52.195856,14.587530,NULL,NULL,NULL,NULL,NULL,NULL,NULL,NULL
319,"Großenhain Airport","\N","Suhl","Germany",51.308056,13.555556,NULL,NULL,NULL,NULL,NULL,NULL,1,NULL
320,"Merseburg Airport","\N","Muehlhausen","Germany",51.363056,11.940833,NULL,NULL,NULL,NULL,NULL,NULL,NULL,NULL
321,"Halle-Oppin Airport","\N","Halle","Germany",51.552223,12.053889,NULL,NULL,NULL,NULL,NULL,NULL,NULL,NULL
322,"Riesa-Göhlis Airport","IES","Riesa","Germany",51.293610,13.356111,NULL,NULL,NULL,NULL,NULL,NULL,NULL,NULL
323,"Rechlin-Lärz Airport","REB","Rechlin-laerz","Germany",53.306389,12.752222,NULL,NULL,NULL,NULL,NULL,NULL,1,NULL
324,"Strausberg Airport","\N","Strausberg","Germany",52.580555,13.916667,NULL,NULL,NULL,NULL,NULL,NULL,NULL,NULL
325,"Schönhagen Airport","QXH","Schoenhagen","Germany",52.203609,13.156389,NULL,NULL,NULL,NULL,NULL,NULL,3,NULL
326,"Barth Airport","BBH","Barth","Germany",54.338253,12.710515,NULL,NULL,NULL,NULL,NULL,NULL,2,NULL
327,"Jena-Schöngleina Airfield","\N","Jena","Germany",50.915279,11.714444,NULL,NULL,NULL,NULL,NULL,NULL,NULL,NULL
328,"Kyritz Airport","\N","Kyritz","Germany",52.918888,12.425278,NULL,NULL,NULL,NULL,NULL,NULL,NULL,NULL
329,"Magdeburg """"City"""" Airport","ZMG","Magdeburg","Germany",52.073612,11.626389,NULL,NULL,NULL,NULL,NULL,NULL,NULL,NULL
330,"Rothenburg/Görlitz Airport","\N","Rothenburg/ol","Germany",51.363335,14.950000,NULL,NULL,NULL,NULL,NULL,NULL,NULL,NULL
331,"Anklam Airfield","\N","Anklam","Germany",53.832779,13.668611,NULL,NULL,NULL,NULL,NULL,NULL,NULL,NULL
332,"Cottbus-Drewitz Airport","CBU","Cottbus","Germany",51.889442,14.531944,NULL,NULL,NULL,NULL,NULL,NULL,2,NULL
333,"Kamenz Airport","\N","Kamenz","Germany",51.296944,14.127500,NULL,NULL,NULL,NULL,NULL,NULL,NULL,NULL
334,"Berlin-Schönefeld Airport","SXF","Berlin","Germany",52.380001,13.522500,NULL,NULL,12725937,NULL,NULL,NULL,1,"1934-10-15"
335,"Dresden Airport","DRS","Dresden","Germany",51.132801,13.767200,7,8,838387,20119,NULL,NULL,1,NULL
336,"Erfurt Airport","ERF","Erfurt","Germany",50.979801,10.958100,2,3,NULL,6048,NULL,NULL,1,NULL
337,"Frankfurt am Main Airport","FRA","Frankfurt","Germany",50.033333,8.570556,293,78,59359539,430436,NULL,NULL,4,"1936-07-08"
338,"Münster Osnabrück Airport","FMO","Munster","Germany",52.134602,7.684830,7,6,830772,37678,NULL,NULL,1,NULL
339,"Hamburg Airport","HAM","Hamburg","Germany",53.630402,9.988230,122,48,11096296,109510,NULL,NULL,2,NULL
340,"Berlin-Tempelhof International Airport","THF","Berlin","Germany",52.473000,13.403900,NULL,NULL,NULL,NULL,NULL,NULL,NULL,NULL
341,"Cologne Bonn Airport","CGN","Cologne","Germany",50.865898,7.142740,106,26,NULL,120975,NULL,NULL,3,NULL
342,"Düsseldorf Airport","DUS","Duesseldorf","Germany",51.289501,6.766780,169,50,NULL,140598,NULL,NULL,2,"1927-04-19"
343,"Munich Airport","MUC","Munich","Germany",48.353802,11.786100,222,72,37037070,302150,NULL,NULL,2,"1992-05-17"
344,"Nuremberg Airport","NUE","Nuernberg","Germany",49.498699,11.078056,53,19,3923254,50313,NULL,NULL,1,"1955-04-06"
345,"Leipzig/Halle Airport","LEJ","Leipzig","Germany",51.423889,12.236389,23,10,1558602,80902,NULL,NULL,2,NULL
346,"Saarbrücken Airport","SCN","Saarbruecken","Germany",49.214600,7.109510,5,3,300034,6882,NULL,NULL,2,NULL
347,"Stuttgart Airport","STR","Stuttgart","Germany",48.689899,9.221960,113,28,6986943,85822,NULL,NULL,1,"1948-01-01"
348,"Berlin-Tegel Airport","TXL","Berlin","Germany",52.559700,13.287700,NULL,NULL,24227570,NULL,NULL,NULL,2,"1974-04-01"
349,"Hannover Airport","HAJ","Hannover","Germany",52.461102,9.685080,62,23,3961983,61871,NULL,NULL,3,NULL
350,"Bremen Airport","BRE","Bremen","Germany",53.047501,8.786670,17,12,1814892,27045,NULL,NULL,2,NULL
351,"Frankfurt-Egelsbach Airport","QEF","Egelsbach","Germany",49.959999,8.645833,NULL,NULL,NULL,NULL,NULL,NULL,1,NULL
352,"Frankfurt-Hahn Airport","HHN","Hahn","Germany",49.948700,7.263890,44,7,1377087,15965,NULL,NULL,1,"1993-09-30"
353,"Mannheim-City Airport","MHG","Mannheim","Germany",49.473057,8.514167,NULL,NULL,NULL,NULL,NULL,NULL,2,NULL
354,"Allendorf/Eder Airport","\N","Allendorf","Germany",51.035000,8.680833,NULL,NULL,NULL,NULL,NULL,NULL,NULL,NULL
355,"Worms Airport","\N","Worms","Germany",49.606945,8.368333,NULL,NULL,NULL,NULL,NULL,NULL,NULL,NULL
356,"Mainz-Finthen Airport","\N","Mainz","Germany",49.967499,8.147222,NULL,NULL,NULL,NULL,NULL,NULL,1,NULL
357,"Eisenach-Kindel Airport","EIB","Eisenach","Germany",50.991604,10.479730,NULL,NULL,NULL,NULL,NULL,NULL,NULL,NULL
358,"Siegerland Airport","SGE","Siegerland","Germany",50.707699,8.082970,NULL,NULL,NULL,NULL,NULL,NULL,3,NULL
359,"Hamburg-Finkenwerder Airport","XFW","Hamburg","Germany",53.535278,9.835556,NULL,NULL,NULL,NULL,NULL,NULL,1,NULL
360,"Kiel-Holtenau Airport","KEL","Kiel","Germany",54.379444,10.145278,NULL,NULL,NULL,NULL,NULL,NULL,2,NULL
361,"Lübeck Blankensee Airport","LBC","Luebeck","Germany",53.805401,10.719200,NULL,NULL,NULL,NULL,NULL,NULL,1,NULL
362,"Flugplatz Dahlemer Binz","\N","Dahlemer Binz","Germany",50.405556,6.528889,NULL,NULL,NULL,NULL,NULL,NULL,NULL,NULL
363,"Meinerzhagen Airport","\N","Meinerzhagen","Germany",51.099998,7.600000,NULL,NULL,NULL,NULL,NULL,NULL,NULL,NULL
364,"Arnsberg-Menden Airport","\N","Arnsberg","Germany",51.483891,7.898333,NULL,NULL,NULL,NULL,NULL,NULL,NULL,NULL
365,"Essen Mulheim Airport","ESS","Essen","Germany",51.402302,6.937330,NULL,NULL,NULL,NULL,NULL,NULL,1,NULL
366,"Bielefeld Airport","BFE","Bielefeld","Germany",51.964722,8.544444,NULL,NULL,NULL,NULL,NULL,NULL,1,NULL
367,"Mönchengladbach Airport","MGL","Moenchengladbach","Germany",51.230278,6.504444,NULL,NULL,33842,46644,NULL,NULL,1,NULL
368,"Paderborn Lippstadt Airport","PAD","Paderborn","Germany",51.614101,8.616320,7,6,502621,38035,NULL,NULL,1,NULL
369,"Stadtlohn-Vreden Airport","\N","Stadtlohn","Germany",51.995834,6.840556,NULL,NULL,NULL,NULL,NULL,NULL,1,NULL
370,"Dortmund Airport","DTM","Dortmund","Germany",51.518299,7.612240,42,8,2934516,36258,NULL,NULL,1,NULL
371,"Augsburg Airport","AGB","Augsburg","Germany",48.425278,10.931667,NULL,NULL,NULL,NULL,NULL,NULL,2,NULL
372,"Biberach a.d. Riß Airfield","\N","Biberach","Germany",48.111111,9.762778,NULL,NULL,NULL,NULL,NULL,NULL,NULL,NULL
373,"Eggenfelden Airport","\N","Eggenfelden","Germany",48.396111,12.723611,NULL,NULL,NULL,NULL,NULL,NULL,NULL,NULL
374,"Mindelheim-Mattsies Airfield","\N","Mindelheim","Germany",48.106945,10.525000,NULL,NULL,NULL,NULL,NULL,NULL,NULL,NULL
375,"Oberpfaffenhofen Airport","OBF","Oberpfaffenhofen","Germany",48.081402,11.283100,NULL,NULL,NULL,NULL,NULL,NULL,1,NULL
376,"Straubing Airport","RBM","Straubing","Germany",48.900833,12.516667,NULL,NULL,NULL,NULL,NULL,NULL,1,NULL
377,"Vilshofen Airport","\N","Vilshofen","Germany",48.634998,13.195556,NULL,NULL,NULL,NULL,NULL,NULL,NULL,NULL
378,"Leutkirch-Unterzeil Airport","\N","Leutkirch","Germany",47.858891,10.014167,NULL,NULL,NULL,NULL,NULL,NULL,NULL,NULL
379,"Friedrichshafen Airport","FDH","Friedrichshafen","Germany",47.671299,9.511490,6,6,339556,29105,NULL,NULL,1,NULL
380,"Schwerin Parchim Airport","SZW","Parchim","Germany",53.426998,11.783400,NULL,NULL,NULL,NULL,NULL,NULL,1,NULL
381,"Stendal-Borstel Airport","\N","Stendal","Germany",52.628887,11.818611,NULL,NULL,NULL,NULL,NULL,NULL,NULL,NULL
382,"Aalen-Heidenheim/Elchingen Airport","\N","Aalen-heidenheim","Germany",48.777779,10.264722,NULL,NULL,NULL,NULL,NULL,NULL,NULL,NULL
383,"Bayreuth Airport","BYU","Bayreuth","Germany",49.985001,11.640000,NULL,NULL,NULL,NULL,NULL,NULL,1,NULL
384,"Burg Feuerstein Airport","URD","Burg Feuerstein","Germany",49.794167,11.133611,NULL,NULL,NULL,NULL,NULL,NULL,NULL,NULL
385,"Hof-Plauen Airport","HOQ","Hof","Germany",50.288612,11.856389,NULL,NULL,NULL,NULL,NULL,NULL,1,NULL
386,"Haßfurt-Schweinfurt Airport","\N","Hassfurt","Germany",50.018055,10.529444,NULL,NULL,NULL,NULL,NULL,NULL,NULL,NULL
387,"Koblenz-Winningen Airfield","\N","Koblenz","Germany",50.325558,7.528611,NULL,NULL,NULL,NULL,NULL,NULL,NULL,NULL
388,"Trier-Föhren Airport","\N","Trier","Germany",49.863888,6.787500,NULL,NULL,NULL,NULL,NULL,NULL,1,NULL
389,"Speyer Airfield","\N","Speyer","Germany",49.304722,8.451389,NULL,NULL,NULL,NULL,NULL,NULL,NULL,NULL
390,"Zweibrücken Airport","ZQW","Zweibruecken","Germany",49.209400,7.400560,NULL,NULL,220740,11855,NULL,NULL,1,NULL
391,"Donaueschingen-Villingen Airport","ZQL","Donaueschingen","Germany",47.973331,8.522222,NULL,NULL,NULL,NULL,NULL,NULL,NULL,NULL
392,"Freiburg i. Br. Airport","\N","Freiburg","Germany",48.022778,7.832500,NULL,NULL,NULL,NULL,NULL,NULL,NULL,NULL
393,"Mengen-Hohentengen Airport","\N","Mengen","Germany",48.053890,9.372778,NULL,NULL,NULL,NULL,NULL,NULL,NULL,NULL
394,"Adolf Würth Airport","\N","Schwaebisch Hall","Germany",49.118332,9.783889,NULL,NULL,NULL,NULL,NULL,NULL,NULL,NULL
395,"Finsterwalde/Schacksdorf Airport","\N","Soest","Germany",51.607498,13.743611,NULL,NULL,NULL,NULL,NULL,NULL,NULL,NULL
396,"Braunschweig-Wolfsburg Airport","BWE","Braunschweig","Germany",52.319199,10.556100,NULL,NULL,NULL,NULL,NULL,NULL,2,NULL
397,"Kassel-Calden Airport","KSF","Kassel","Germany",51.417273,9.384967,NULL,NULL,115597,29814,NULL,NULL,2,NULL
398,"Hildesheim Airport","\N","Hildesheim","Germany",52.181389,9.946389,NULL,NULL,NULL,NULL,NULL,NULL,NULL,NULL
399,"Bremerhaven Airport","BRV","Bremerhaven","Germany",53.506943,8.572778,NULL,NULL,NULL,NULL,NULL,NULL,2,NULL
400,"Emden Airport","EME","Emden","Germany",53.391109,7.227500,NULL,NULL,21984,8391,NULL,NULL,1,NULL
401,"Leer-Papenburg Airport","\N","Leer","Germany",53.271942,7.441667,NULL,NULL,NULL,NULL,NULL,NULL,NULL,NULL
402,"Wilhelmshaven-Mariensiel Airport","WVN","Wilhelmshaven","Germany",53.502220,8.052222,NULL,NULL,NULL,NULL,NULL,NULL,2,NULL
403,"Borkum Airport","BMK","Borkum","Germany",53.596390,6.709167,NULL,NULL,NULL,NULL,NULL,NULL,3,NULL
404,"Norderney Airport","NRD","Norderney","Germany",53.706944,7.230000,NULL,NULL,NULL,9696,NULL,NULL,1,"1970-01-01"
405,"Flensburg-Schäferhaus Airport","FLF","Flensburg","Germany",54.773335,9.378889,NULL,NULL,NULL,NULL,NULL,NULL,3,NULL
406,"Rendsburg-Schachtholm Airport","\N","Rendsburg","Germany",54.220001,9.599444,NULL,NULL,NULL,NULL,NULL,NULL,NULL,NULL
407,"Westerland Sylt Airport","GWT","Westerland","Germany",54.913200,8.340470,6,5,NULL,NULL,NULL,NULL,2,NULL
408,"Ämari Air Base","\N","Armari Air Force Base","Estonia",59.260300,24.208500,NULL,NULL,NULL,NULL,NULL,NULL,2,NULL
409,"Kärdla Airport","KDL","Kardla","Estonia",58.990799,22.830700,NULL,NULL,16165,1566,NULL,NULL,1,NULL
410,"Kuressaare Airport","URE","Kuressaare","Estonia",58.229900,22.509501,NULL,NULL,42232,1973,NULL,NULL,2,NULL
411,"Pärnu Airport","EPU","Parnu","Estonia",58.418999,24.472799,NULL,NULL,2087,810,NULL,NULL,1,"1939-01-01"
412,"Lennart Meri Tallinn Airport","TLL","Tallinn-ulemiste International","Estonia",59.413300,24.832800,47,20,2684997,38044,NULL,NULL,1,"1936-01-01"
413,"Tartu Airport","TAY","Tartu","Estonia",58.307499,26.690399,NULL,NULL,1080,3896,NULL,NULL,1,"1946-01-01"
414,"Enontekio Airport","ENF","Enontekio","Finland",68.362602,23.424299,NULL,NULL,25537,NULL,NULL,NULL,1,NULL
415,"Eura Airport","\N","Eura","Finland",61.116100,22.201401,NULL,NULL,NULL,NULL,NULL,NULL,1,NULL
416,"Halli Airport","KEV","Halli","Finland",61.856039,24.786686,NULL,NULL,15,NULL,NULL,NULL,1,NULL
417,"Helsinki Malmi Airport","HEM","Helsinki","Finland",60.254601,25.042801,NULL,NULL,NULL,NULL,NULL,NULL,2,NULL
418,"Helsinki Vantaa Airport","HEL","Helsinki","Finland",60.317200,24.963301,122,18,15313355,NULL,NULL,NULL,3,"1952-01-01"
419,"Hameenkyro Airport","\N","Hameenkyro","Finland",61.689701,23.073700,NULL,NULL,NULL,NULL,NULL,NULL,NULL,NULL
420,"Hanko Airport","\N","Hanko","Finland",59.848900,23.083599,NULL,NULL,NULL,NULL,NULL,NULL,1,NULL
421,"Hyvinkää Airfield","HYV","Hyvinkaa","Finland",60.654400,24.881100,NULL,NULL,NULL,NULL,NULL,NULL,2,NULL
422,"Kiikala Airport","\N","Kikala","Finland",60.462502,23.652500,NULL,NULL,NULL,NULL,NULL,NULL,NULL,NULL
423,"Immola Airport","\N","Immola","Finland",61.249199,28.903700,NULL,NULL,NULL,NULL,NULL,NULL,1,NULL
424,"Kitee Airport","KTQ","Kitee","Finland",62.166100,30.073601,NULL,NULL,NULL,NULL,NULL,NULL,1,NULL
425,"Ivalo Airport","IVL","Ivalo","Finland",68.607300,27.405300,10,8,114922,NULL,NULL,NULL,2,NULL
426,"Joensuu Airport","JOE","Joensuu","Finland",62.662899,29.607500,NULL,NULL,133726,NULL,NULL,NULL,2,NULL
427,"Jyvaskyla Airport","JYV","Jyvaskyla","Finland",62.399502,25.678301,NULL,NULL,67966,NULL,NULL,NULL,1,NULL
428,"Kauhava Airport","KAU","Kauhava","Finland",63.127102,23.051399,NULL,NULL,155,NULL,NULL,NULL,1,NULL
429,"Kemi-Tornio Airport","KEM","Kemi","Finland",65.778702,24.582100,NULL,NULL,66800,NULL,NULL,NULL,1,NULL
430,"Kajaani Airport","KAJ","Kajaani","Finland",64.285500,27.692400,3,3,88815,NULL,NULL,NULL,1,NULL
431,"Kauhajoki Airport","KHJ","Kauhajoki","Finland",62.462502,22.393101,NULL,NULL,NULL,NULL,NULL,NULL,1,NULL
432,"Kokkola-Pietarsaari Airport","KOK","Kruunupyy","Finland",63.721199,23.143101,NULL,NULL,68636,NULL,NULL,NULL,2,NULL
433,"Kemijarvi Airport","\N","Kemijarvi","Finland",66.712898,27.156799,NULL,NULL,NULL,NULL,NULL,NULL,NULL,NULL
434,"Kuusamo Airport","KAO","Kuusamo","Finland",65.987602,29.239401,7,6,87752,NULL,NULL,NULL,1,NULL
435,"Kittilä Airport","KTT","Kittila","Finland",67.700996,24.846800,17,13,206251,NULL,NULL,NULL,1,NULL
436,"Kuopio Airport","KUO","Kuopio","Finland",63.007099,27.797800,NULL,NULL,235411,NULL,NULL,NULL,2,NULL
437,"Lahti Vesivehmaa Airport","QLF","Vesivehmaa","Finland",61.144199,25.693501,NULL,NULL,NULL,NULL,NULL,NULL,2,NULL
438,"Lappeenranta Airport","LPP","Lappeenranta","Finland",61.044601,28.144743,NULL,NULL,98300,NULL,NULL,NULL,1,NULL
439,"Mariehamn Airport","MHQ","Mariehamn","Finland",60.122200,19.898199,3,2,23,NULL,NULL,NULL,1,NULL
440,"Menkijarvi Airport","\N","Menkijarvi","Finland",62.946701,23.518900,NULL,NULL,NULL,NULL,NULL,NULL,NULL,NULL
441,"Mikkeli Airport","MIK","Mikkeli","Finland",61.686600,27.201799,NULL,NULL,1214,NULL,NULL,NULL,1,NULL
442,"Nummela Airport","\N","Nummela","Finland",60.333900,24.296400,NULL,NULL,NULL,NULL,NULL,NULL,NULL,NULL
443,"Oulu Airport","OUL","Oulu","Finland",64.930099,25.354601,2,2,554096,NULL,NULL,NULL,1,"1953-06-30"
444,"Piikajarvi Airport","\N","Piikajarvi","Finland",61.245602,22.193399,NULL,NULL,NULL,NULL,NULL,NULL,NULL,NULL
445,"Pori Airport","POR","Pori","Finland",61.461700,21.799999,NULL,NULL,17625,NULL,NULL,NULL,2,NULL
446,"Pudasjärvi Airport","\N","Pudasjarvi","Finland",65.402199,26.946899,NULL,NULL,NULL,NULL,NULL,NULL,1,NULL
447,"Pyhäsalmi Airport","\N","Pyhasalmi","Finland",63.731899,25.926300,NULL,NULL,NULL,NULL,NULL,NULL,1,NULL
448,"Raahe Pattijoki Airport","\N","Pattijoki","Finland",64.688103,24.695801,NULL,NULL,NULL,NULL,NULL,NULL,NULL,NULL
449,"Rantasalmi Airport","\N","Rantasalmi","Finland",62.065498,28.356501,NULL,NULL,NULL,NULL,NULL,NULL,1,NULL
450,"Rovaniemi Airport","RVN","Rovaniemi","Finland",66.564796,25.830400,37,17,735078,NULL,NULL,NULL,1,NULL
451,"Rayskala Airport","\N","Rayskala","Finland",60.744701,24.107800,NULL,NULL,NULL,NULL,NULL,NULL,NULL,NULL
452,"Savonlinna Airport","SVL","Savonlinna","Finland",61.943100,28.945101,NULL,NULL,15899,NULL,NULL,NULL,1,NULL
453,"Selanpaa Airport","\N","Selanpaa","Finland",61.062401,26.798901,NULL,NULL,NULL,NULL,NULL,NULL,NULL,NULL
454,"Sodankyla Airport","SOT","Sodankyla","Finland",67.394997,26.619101,NULL,NULL,NULL,NULL,NULL,NULL,1,NULL
455,"Tampere-Pirkkala Airport","TMP","Tampere","Finland",61.414101,23.604401,NULL,NULL,168328,NULL,NULL,NULL,1,NULL
456,"Teisko Airport","\N","Teisko","Finland",61.773300,24.027000,NULL,NULL,NULL,NULL,NULL,NULL,NULL,NULL
457,"Turku Airport","TKU","Turku","Finland",60.514099,22.262800,5,5,112585,NULL,NULL,NULL,1,NULL
458,"Utti Air Base","UTI","Utti","Finland",60.896400,26.938400,NULL,NULL,14,NULL,NULL,NULL,1,NULL
459,"Vaasa Airport","VAA","Vaasa","Finland",63.050701,21.762199,2,2,153781,NULL,NULL,NULL,1,"1938-01-01"
460,"Varkaus Airport","VRK","Varkaus","Finland",62.171101,27.868601,NULL,NULL,0,NULL,NULL,NULL,1,NULL
461,"Ylivieska Airfield","YLI","Ylivieska-raudaskyla","Finland",64.054722,24.725278,NULL,NULL,NULL,NULL,NULL,NULL,1,NULL
462,"Belfast International Airport","BFS","Belfast","United Kingdom",54.657501,-6.215830,62,4,5957055,57761,NULL,NULL,2,NULL
463,"St Angelo Airport","ENK","Enniskillen","United Kingdom",54.398899,-7.651670,NULL,NULL,NULL,NULL,NULL,NULL,1,NULL
464,"George Best Belfast City Airport","BHD","Belfast","United Kingdom",54.618099,-5.872500,24,6,2115153,29282,NULL,NULL,1,"1983-03-16"
465,"City of Derry Airport","LDY","Londonderry","United Kingdom",55.042801,-7.161110,4,2,154486,7110,NULL,NULL,2,NULL
466,"Birmingham International Airport","BHX","Birmingham","United Kingdom",52.453899,-1.748030,127,28,11479335,NULL,NULL,NULL,1,NULL
467,"Coventry Airport","CVT","Coventry","United Kingdom",52.369701,-1.479720,NULL,NULL,NULL,NULL,NULL,NULL,1,NULL
468,"Leicester Airport","\N","Leicester","United Kingdom",52.607800,-1.031940,NULL,NULL,NULL,NULL,NULL,NULL,3,NULL
469,"Gloucestershire Airport","GLO","Golouchestershire","United Kingdom",51.894199,-2.167220,NULL,NULL,14168,NULL,NULL,NULL,3,NULL
470,"Wolverhampton Halfpenny Green Airport","\N","Halfpenny Green","United Kingdom",52.517502,-2.259440,NULL,NULL,NULL,NULL,NULL,NULL,3,NULL
471,"Cotswold Airport","GBA","Pailton","United Kingdom",51.668095,-2.056940,NULL,NULL,NULL,NULL,NULL,NULL,2,NULL
472,"Turweston Airport","\N","Turweston","United Kingdom",52.040798,-1.095560,NULL,NULL,NULL,NULL,NULL,NULL,NULL,NULL
473,"Wellesbourne Mountford Airport","\N","Wellesbourne","United Kingdom",52.192200,-1.614440,NULL,NULL,NULL,NULL,NULL,NULL,NULL,NULL
474,"Manchester Airport","MAN","Manchester","United Kingdom",53.353699,-2.274950,186,51,23364471,151460,NULL,NULL,2,"1938-06-25"
475,"Manchester Woodford Airport","\N","Woodfort","United Kingdom",53.338100,-2.148890,NULL,NULL,NULL,NULL,NULL,NULL,1,NULL
476,"Royal Marines Base Chivenor Airport","\N","Chivenor","United Kingdom",51.087200,-4.150340,NULL,NULL,NULL,NULL,NULL,NULL,NULL,NULL
477,"Newquay Cornwall Airport","NQY","Newquai","United Kingdom",50.440601,-4.995410,16,10,408870,19384,NULL,NULL,1,"1962-01-01"
478,"RAF Lyneham","LYE","Lyneham","United Kingdom",51.505100,-1.993430,NULL,NULL,NULL,NULL,NULL,NULL,2,NULL
479,"MoD Boscombe Down Airport","\N","Boscombe Down","United Kingdom",51.152199,-1.747410,NULL,NULL,NULL,NULL,NULL,NULL,NULL,NULL
480,"RNAS Culdrose","\N","Culdrose","United Kingdom",50.086102,-5.255710,NULL,NULL,NULL,NULL,NULL,NULL,3,NULL
481,"MoD St. Athan","\N","St. Athan","United Kingdom",51.404800,-3.435750,NULL,NULL,NULL,NULL,NULL,NULL,NULL,NULL
482,"RNAS Yeovilton","YEO","Yeovilton","United Kingdom",51.009399,-2.638820,NULL,NULL,NULL,NULL,NULL,NULL,2,NULL
483,"Haverfordwest Airport","HAW","Haverfordwest","United Kingdom",51.833099,-4.961110,NULL,NULL,NULL,NULL,NULL,NULL,2,NULL
484,"Cardiff International Airport","CWL","Cardiff","United Kingdom",51.396702,-3.343330,10,7,859805,6823,NULL,NULL,1,"1954-04-02"
485,"Swansea Airport","SWS","Swansea","United Kingdom",51.605301,-4.067830,NULL,NULL,NULL,NULL,NULL,NULL,2,NULL
486,"Bristol Airport","BRS","Bristol","United Kingdom",51.382702,-2.719090,119,14,9800000,56391,NULL,NULL,1,NULL
487,"Liverpool John Lennon Airport","LPL","Liverpool","United Kingdom",53.333599,-2.849720,69,10,4193623,49436,NULL,NULL,1,"1933-07-01"
488,"London Luton Airport","LTN","London","United Kingdom",51.874699,-0.368333,122,9,13324491,87783,NULL,NULL,1,"1938-07-16"
489,"Plymouth City Airport","PLH","Plymouth","United Kingdom",50.422798,-4.105830,NULL,NULL,157933,NULL,NULL,NULL,2,"1931-01-01"
490,"Bournemouth Airport","BOH","Bournemouth","United Kingdom",50.779999,-1.842500,32,4,950206,5066,NULL,NULL,1,"1944-01-01"
491,"Southampton Airport","SOU","Southampton","United Kingdom",50.950298,-1.356800,19,9,754931,21998,NULL,NULL,1,"1917-01-01"
492,"Lasham Airport","QLA","Lasham","United Kingdom",51.187199,-1.033500,NULL,NULL,NULL,NULL,NULL,NULL,1,NULL
493,"Alderney Airport","ACI","Alderney","Guernsey",49.706104,-2.214720,NULL,NULL,50924,4222,NULL,NULL,3,NULL
494,"Guernsey Airport","GCI","Guernsey","Guernsey",49.435001,-2.601970,10,2,654446,16127,NULL,NULL,1,NULL
495,"Jersey Airport","JER","Jersey","Jersey",49.207901,-2.195510,23,9,1336225,17083,NULL,NULL,1,"1937-03-10"
496,"Shoreham Airport","ESH","Shoreham By Sea","United Kingdom",50.835602,-0.297222,NULL,NULL,39224,NULL,NULL,NULL,3,NULL
497,"London Biggin Hill Airport","BQH","Biggin Hill","United Kingdom",51.330799,0.032500,NULL,NULL,NULL,NULL,NULL,NULL,2,NULL
498,"London Gatwick Airport","LGW","London","United Kingdom",51.148102,-0.190278,201,58,40894242,NULL,NULL,NULL,2,"1958-05-30"
499,"London City Airport","LCY","London","United Kingdom",51.505299,0.055278,31,9,3009313,44731,NULL,NULL,1,"1987-10-26"
500,"Farnborough Airport","FAB","Farnborough","United Kingdom",51.275799,-0.776333,NULL,NULL,NULL,NULL,NULL,NULL,1,NULL
501,"Chalgrove Airport","\N","Chalsgrove","United Kingdom",51.676102,-1.080830,NULL,NULL,NULL,NULL,NULL,NULL,NULL,NULL
502,"Blackbushe Airport","BBS","Blackbushe","United Kingdom",51.323898,-0.847500,NULL,NULL,NULL,NULL,NULL,NULL,1,NULL
503,"London Heathrow Airport","LHR","London","United Kingdom",51.470600,-0.461941,220,81,79151723,454089,NULL,NULL,2,"1946-03-25"
504,"Southend Airport","SEN","Southend","United Kingdom",51.571400,0.695556,NULL,NULL,146072,31546,NULL,NULL,1,"1935-01-01"
505,"Lydd Airport","LYX","Lydd","United Kingdom",50.956100,0.939167,NULL,NULL,285,NULL,NULL,NULL,1,NULL
506,"Kent International Airport","MSE","Manston","United Kingdom",51.342201,1.346110,NULL,NULL,12508,NULL,NULL,NULL,1,NULL
507,"Brough Airport","\N","Brough","United Kingdom",53.719700,-0.566333,NULL,NULL,NULL,NULL,NULL,NULL,NULL,NULL
508,"Carlisle Airport","CAX","Carlisle","United Kingdom",54.937500,-2.809170,NULL,NULL,NULL,NULL,NULL,NULL,2,NULL
509,"Retford Gamston Airport","\N","Repton","United Kingdom",53.280602,-0.951389,NULL,NULL,NULL,NULL,NULL,NULL,2,NULL
510,"Blackpool International Airport","BLK","Blackpool","United Kingdom",53.771702,-3.028610,NULL,NULL,NULL,37259,NULL,NULL,3,NULL
511,"Humberside Airport","HUY","Humberside","United Kingdom",53.574402,-0.350833,5,2,92465,11973,NULL,NULL,2,NULL
512,"Barrow Walney Island Airport","BWF","Barrow Island","United Kingdom",54.128611,-3.267500,NULL,NULL,NULL,NULL,NULL,NULL,3,NULL
513,"Leeds Bradford Airport","LBA","Leeds","United Kingdom",53.865898,-1.660570,76,10,3288635,25943,NULL,NULL,1,"1931-10-17"
514,"Warton Airport","WRT","Warton","United Kingdom",53.745098,-2.883060,NULL,NULL,NULL,NULL,NULL,NULL,2,NULL
515,"Hawarden Airport","CEG","Hawarden","United Kingdom",53.178101,-2.977780,NULL,NULL,NULL,NULL,NULL,NULL,1,NULL
516,"Isle of Man Airport","IOM","Isle Of Man","Isle of Man",54.083302,-4.623890,13,5,551941,8842,NULL,NULL,2,NULL
517,"Newcastle Airport","NCL","Newcastle","United Kingdom",55.037498,-1.691670,9,5,NULL,NULL,NULL,NULL,1,NULL
518,"Durham Tees Valley Airport","MME","Teesside","United Kingdom",54.509201,-1.429410,8,3,226557,21125,NULL,NULL,1,NULL
519,"East Midlands Airport","EMA","East Midlands","United Kingdom",52.831100,-1.328060,62,7,3186367,46730,NULL,NULL,1,"1965-01-01"
520,"Llanbedr Airport","\N","Llanbedr","United Kingdom",52.811699,-4.123580,NULL,NULL,NULL,NULL,NULL,NULL,3,NULL
521,"RAF Ternhill","\N","Ternhill","United Kingdom",52.871201,-2.533560,NULL,NULL,NULL,NULL,NULL,NULL,2,NULL
522,"RAF Shawbury","\N","Shawbury","United Kingdom",52.798199,-2.668040,NULL,NULL,NULL,NULL,NULL,NULL,4,NULL
523,"RAF Woodvale","\N","Woodvale","United Kingdom",53.581600,-3.055520,NULL,NULL,NULL,NULL,NULL,NULL,2,NULL
524,"Kirkwall Airport","KOI","Kirkwall","United Kingdom",58.957802,-2.905000,NULL,NULL,143093,11443,NULL,NULL,3,NULL
525,"Sumburgh Airport","LSI","Sumburgh","United Kingdom",59.878899,-1.295560,NULL,NULL,247538,11311,NULL,NULL,3,NULL
526,"Wick Airport","WIC","Wick","United Kingdom",58.458900,-3.093060,NULL,NULL,6935,875,NULL,NULL,2,NULL
527,"Aberdeen Dyce Airport","ABZ","Aberdeen","United Kingdom",57.201900,-2.197780,25,11,1960307,56882,NULL,NULL,4,"1934-07-28"
528,"Inverness Airport","INV","Inverness","United Kingdom",57.542500,-4.047500,10,4,700012,10349,NULL,NULL,2,NULL
529,"Glasgow International Airport","GLA","Glasgow","United Kingdom",55.871899,-4.433060,82,15,7355987,74563,NULL,NULL,1,"1966-05-02"
530,"Edinburgh Airport","EDI","Edinburgh","United Kingdom",55.950001,-3.372500,158,36,14395463,115076,NULL,NULL,2,"1947-05-19"
531,"Islay Airport","ILY","Islay","United Kingdom",55.681900,-6.256670,NULL,NULL,26268,1397,NULL,NULL,2,"1933-05-01"
532,"Glasgow Prestwick Airport","PIK","Prestwick","United Kingdom",55.509399,-4.586670,NULL,NULL,445211,3720,NULL,NULL,2,NULL
533,"Benbecula Airport","BEB","Benbecula","United Kingdom",57.481098,-7.362780,NULL,NULL,30414,NULL,NULL,NULL,2,NULL
534,"Scatsta Airport","SCS","Scatsta","United Kingdom",60.432800,-1.296110,NULL,NULL,174934,8513,NULL,NULL,1,NULL
535,"Dundee Airport","DND","Dundee","United Kingdom",56.452499,-3.025830,NULL,NULL,38451,1458,NULL,NULL,1,NULL
536,"Stornoway Airport","SYY","Stornoway","United Kingdom",58.215599,-6.331110,NULL,NULL,102331,4516,NULL,NULL,2,NULL
537,"Tiree Airport","TRE","Tiree","United Kingdom",56.499199,-6.869170,4,2,NULL,NULL,NULL,NULL,3,NULL
538,"RAF Leuchars","ADX","Leuchars","United Kingdom",56.372898,-2.868440,NULL,NULL,NULL,NULL,NULL,NULL,2,NULL
539,"RAF Lossiemouth","LMO","Lossiemouth","United Kingdom",57.705200,-3.339170,NULL,NULL,NULL,NULL,NULL,NULL,2,NULL
540,"Cambridge Airport","CBG","Cambridge","United Kingdom",52.205002,0.175000,NULL,NULL,NULL,21768,NULL,NULL,3,NULL
541,"Peterborough Business Airport","\N","Peterborough","United Kingdom",52.468102,-0.251111,NULL,NULL,NULL,NULL,NULL,NULL,1,NULL
542,"Norwich International Airport","NWI","Norwich","United Kingdom",52.675800,1.282780,6,4,319040,15291,NULL,NULL,2,"1968-01-01"
543,"London Stansted Airport","STN","London","United Kingdom",51.884998,0.235000,193,14,23290097,159502,NULL,NULL,1,"1943-08-07"
544,"North Weald Airport","\N","North Weald","United Kingdom",51.721699,0.154167,NULL,NULL,NULL,NULL,NULL,NULL,NULL,NULL
545,"Sheffield City Heliport","\N","Fowlmere","United Kingdom",53.394299,-1.388490,NULL,NULL,NULL,NULL,NULL,NULL,NULL,NULL
546,"Cranfield Airport","\N","Cranfield","United Kingdom",52.072201,-0.616667,NULL,NULL,NULL,NULL,NULL,NULL,1,NULL
547,"Exeter International Airport","EXT","Exeter","United Kingdom",50.734402,-3.413890,11,6,382223,6386,NULL,NULL,2,NULL
548,"Bristol Filton Airport","FZO","Bristol","United Kingdom",51.519402,-2.590830,NULL,NULL,NULL,NULL,NULL,NULL,1,"1915-01-01"
549,"Oxford (Kidlington) Airport","OXF","Oxford","United Kingdom",51.836899,-1.320000,NULL,NULL,NULL,NULL,NULL,NULL,2,NULL
550,"RAF Benson","BEX","Benson","United Kingdom",51.616402,-1.095830,NULL,NULL,NULL,NULL,NULL,NULL,2,NULL
551,"RAF Lakenheath","LKZ","Lakenheath","United Kingdom",52.409302,0.561000,NULL,NULL,NULL,NULL,NULL,NULL,1,NULL
552,"RAF Mildenhall","MHZ","Mildenhall","United Kingdom",52.361900,0.486406,NULL,NULL,NULL,NULL,NULL,NULL,1,NULL
553,"RAF Wattisham","\N","Wattisham","United Kingdom",52.127300,0.956264,NULL,NULL,NULL,NULL,NULL,NULL,1,NULL
554,"RAF Wyton","QUY","Wyton","United Kingdom",52.357201,-0.107833,NULL,NULL,NULL,NULL,NULL,NULL,2,NULL
555,"RAF Fairford","FFD","Fairford","United Kingdom",51.682201,-1.790030,NULL,NULL,NULL,NULL,NULL,NULL,1,NULL
556,"RAF Brize Norton","BZZ","Brize Norton","United Kingdom",51.750000,-1.583620,NULL,NULL,NULL,NULL,NULL,NULL,1,NULL
557,"RAF Odiham","ODH","Odiham","United Kingdom",51.234100,-0.942825,NULL,NULL,NULL,NULL,NULL,NULL,1,NULL
558,"DCAE Cosford Air Base","\N","Cosford","United Kingdom",52.639999,-2.305580,NULL,NULL,NULL,NULL,NULL,NULL,NULL,NULL
559,"RAF Northolt","NHT","Northolt","United Kingdom",51.553001,-0.418167,NULL,NULL,NULL,NULL,NULL,NULL,1,NULL
560,"RAF Coningsby","QCY","Coningsby","United Kingdom",53.092999,-0.166014,NULL,NULL,NULL,NULL,NULL,NULL,1,NULL
561,"RAF Dishforth","\N","Dishforth","United Kingdom",54.137199,-1.420250,NULL,NULL,NULL,NULL,NULL,NULL,2,NULL
562,"Leeming Airport","\N","Leeming","United Kingdom",54.292400,-1.535400,NULL,NULL,NULL,NULL,NULL,NULL,NULL,NULL
563,"Leeds East Airport","\N","Church Fenton","United Kingdom",53.834301,-1.195500,NULL,NULL,NULL,NULL,NULL,NULL,1,NULL
564,"RAF Honington","BEQ","Honington","United Kingdom",52.342602,0.772939,NULL,NULL,NULL,NULL,NULL,NULL,1,NULL
565,"RAF Cottesmore","\N","Cottesmore","United Kingdom",52.735699,-0.648769,NULL,NULL,NULL,NULL,NULL,NULL,4,NULL
566,"RAF Scampton","SQZ","Scampton","United Kingdom",53.307800,-0.550833,NULL,NULL,NULL,NULL,NULL,NULL,1,NULL
567,"RAF Wittering","\N","Wittering","United Kingdom",52.612598,-0.476453,NULL,NULL,NULL,NULL,NULL,NULL,1,NULL
568,"RAF Linton-On-Ouse","HRT","Linton-on-ouse","United Kingdom",54.048901,-1.252750,NULL,NULL,NULL,NULL,NULL,NULL,2,NULL
569,"RAF Waddington","WTN","Waddington","United Kingdom",53.166199,-0.523811,NULL,NULL,NULL,NULL,NULL,NULL,1,NULL
570,"RAF Topcliffe","\N","Topcliffe","United Kingdom",54.205502,-1.382090,NULL,NULL,NULL,NULL,NULL,NULL,3,NULL
571,"RAF Cranwell","\N","Cranwell","United Kingdom",53.030300,-0.483242,NULL,NULL,NULL,NULL,NULL,NULL,4,NULL
572,"RAF Barkston Heath","\N","Barkston Heath","United Kingdom",52.962200,-0.561625,NULL,NULL,NULL,NULL,NULL,NULL,3,NULL
573,"RAF Marham","KNF","Marham","United Kingdom",52.648395,0.550692,NULL,NULL,NULL,NULL,NULL,NULL,2,NULL
574,"Mount Pleasant Airport","MPN","Mount Pleasant","Falkland Islands",-51.822800,-58.447201,3,2,NULL,NULL,NULL,NULL,2,NULL
575,"Amsterdam Airport Schiphol","AMS","Amsterdam","Netherlands",52.308601,4.763890,263,73,61889586,441969,NULL,NULL,6,"1916-09-16"
576,"Budel Airfield Kempen","\N","Weert","Netherlands",51.255299,5.601390,NULL,NULL,NULL,NULL,NULL,NULL,NULL,NULL
577,"Maastricht Aachen Airport","MST","Maastricht","Netherlands",50.911701,5.770140,6,2,97646,NULL,NULL,NULL,1,NULL
578,"Deelen Air Base","\N","Deelen","Netherlands",52.060600,5.873060,NULL,NULL,NULL,NULL,NULL,NULL,2,NULL
579,"Drachten Airport","\N","Drachten","Netherlands",53.119202,6.129720,NULL,NULL,NULL,NULL,NULL,NULL,2,NULL
580,"Eindhoven Airport","EIN","Eindhoven","Netherlands",51.450100,5.374530,77,10,6800000,41,NULL,NULL,1,NULL
581,"Eelde Airport","GRQ","Groningen","Netherlands",53.119701,6.579440,NULL,NULL,242000,27000,NULL,NULL,1,"1931-05-23"
582,"Gilze Rijen Air Base","GLZ","Gilze-rijen","Netherlands",51.567402,4.931830,NULL,NULL,NULL,NULL,NULL,NULL,2,NULL
583,"De Kooy Airport","DHR","De Kooy","Netherlands",52.923401,4.780620,NULL,NULL,NULL,NULL,NULL,NULL,1,NULL
584,"Lelystad Airport","LEY","Lelystad","Netherlands",52.460300,5.527220,NULL,NULL,NULL,NULL,NULL,NULL,1,NULL
585,"Leeuwarden Air Base","LWR","Leeuwarden","Netherlands",53.228600,5.760560,NULL,NULL,NULL,NULL,NULL,NULL,2,NULL
586,"Rotterdam The Hague Airport","RTM","Rotterdam","Netherlands",51.956902,4.437220,50,9,2133976,52439,NULL,NULL,1,NULL
587,"Soesterberg Air Base","UTC","Soesterberg","Netherlands",52.127300,5.276190,NULL,NULL,NULL,NULL,NULL,NULL,1,NULL
588,"Twente Airport","ENS","Enschede","Netherlands",52.275833,6.889167,NULL,NULL,NULL,NULL,NULL,NULL,1,NULL
589,"Valkenburg Naval Air Base","LID","Valkenburg","Netherlands",52.166100,4.417940,NULL,NULL,NULL,NULL,NULL,NULL,4,NULL
590,"Woensdrecht Air Base","WOE","Woensdrecht","Netherlands",51.449100,4.342030,NULL,NULL,NULL,NULL,NULL,NULL,1,NULL
591,"Cork Airport","ORK","Cork","Ireland",51.841301,-8.491110,45,7,2801900,21442,NULL,NULL,2,NULL
592,"Galway Airport","GWY","Galway","Ireland",53.300201,-8.941590,NULL,NULL,NULL,NULL,NULL,NULL,1,NULL
593,"Dublin Airport","DUB","Dublin","Ireland",53.421299,-6.270070,192,47,31908471,226181,NULL,NULL,3,"1940-01-19"
594,"Ireland West Knock Airport","NOC","Connaught","Ireland",53.910301,-8.818490,18,3,818000,6330,NULL,NULL,1,NULL
595,"Kerry Airport","KIR","Kerry","Ireland",52.180901,-9.523780,9,3,419281,NULL,NULL,NULL,2,NULL
596,"Casement Air Base","\N","Casement","Ireland",53.301701,-6.451330,NULL,NULL,NULL,NULL,NULL,NULL,NULL,NULL
597,"Shannon Airport","SNN","Shannon","Ireland",52.702000,-8.924820,33,5,1958000,18086,NULL,NULL,5,NULL
598,"Sligo Airport","SXL","Sligo","Ireland",54.280201,-8.599210,NULL,NULL,NULL,NULL,NULL,NULL,1,NULL
599,"Waterford Airport","WAT","Waterford","Ireland",52.187199,-7.086960,NULL,NULL,2249,NULL,NULL,NULL,1,NULL
600,"Aarhus Airport","AAR","Aarhus","Denmark",56.299999,10.619000,15,5,500365,NULL,NULL,NULL,2,NULL
601,"Billund Airport","BLL","Billund","Denmark",55.740299,9.151780,55,24,3739267,NULL,NULL,NULL,1,"1964-11-01"
602,"Copenhagen Kastrup Airport","CPH","Copenhagen","Denmark",55.617901,12.656000,181,58,NULL,NULL,NULL,NULL,3,NULL
603,"Esbjerg Airport","EBJ","Esbjerg","Denmark",55.525902,8.553400,2,2,76214,NULL,NULL,NULL,1,NULL
604,"Grønholt Hillerød Airport","\N","Gronholt","Denmark",55.941399,12.382200,NULL,NULL,NULL,NULL,NULL,NULL,NULL,NULL
605,"Karup Airport","KRP","Karup","Denmark",56.297501,9.124630,NULL,NULL,NULL,NULL,NULL,NULL,4,NULL
606,"Læsø Airport","BYR","Laeso","Denmark",57.277199,11.000100,NULL,NULL,NULL,NULL,NULL,NULL,1,NULL
607,"Lolland Falster Maribo Airport","MRW","Maribo","Denmark",54.699299,11.440100,NULL,NULL,NULL,NULL,NULL,NULL,1,NULL
608,"Odense Airport","ODE","Odense","Denmark",55.476700,10.330900,NULL,NULL,23183,NULL,NULL,NULL,2,NULL
609,"Kruså-Padborg Airport","\N","Krusa-padborg","Denmark",54.870300,9.279010,NULL,NULL,NULL,NULL,NULL,NULL,NULL,NULL
610,"Copenhagen Roskilde Airport","RKE","Copenhagen","Denmark",55.585602,12.131400,NULL,NULL,NULL,NULL,NULL,NULL,2,NULL
611,"Bornholm Airport","RNN","Ronne","Denmark",55.063301,14.759600,3,2,236428,NULL,NULL,NULL,1,NULL
612,"Sønderborg Airport","SGD","Soenderborg","Denmark",54.964401,9.791730,NULL,NULL,73,11746,NULL,NULL,1,NULL
613,"Skrydstrup Air Base","SKS","Skrydstrup","Denmark",55.221048,9.267020,NULL,NULL,NULL,NULL,NULL,NULL,2,NULL
614,"Skive Airport","SQW","Skive","Denmark",56.550201,9.172980,NULL,NULL,NULL,NULL,NULL,NULL,1,NULL
615,"Thisted Airport","TED","Thisted","Denmark",57.068802,8.705220,NULL,NULL,9837,3334,NULL,NULL,1,NULL
616,"Kolding Vamdrup Airfield","\N","Kolding","Denmark",55.436298,9.330920,NULL,NULL,NULL,NULL,NULL,NULL,NULL,NULL
617,"Vagar Airport","FAE","Vagar","Faroe Islands",62.063599,-7.277220,15,4,406453,5521,NULL,NULL,1,NULL
618,"Vesthimmerlands Flyveplads","\N","Vesthimmerland","Denmark",56.846901,9.458610,NULL,NULL,NULL,NULL,NULL,NULL,NULL,NULL
619,"Stauning Airport","STA","Stauning","Denmark",55.990101,8.353910,NULL,NULL,3708,16719,NULL,NULL,1,NULL
620,"Aalborg Airport","AAL","Aalborg","Denmark",57.092759,9.849243,18,11,1,NULL,NULL,NULL,2,NULL
621,"Luxembourg-Findel International Airport","LUX","Luxemburg","Luxembourg",49.623333,6.204444,110,16,4,NULL,NULL,NULL,1,NULL
622,"Ålesund Airport","AES","Alesund","Norway",62.562500,6.119700,7,6,1077209,16057,NULL,NULL,1,NULL
623,"Andøya Airport","ANX","Andoya","Norway",69.292503,16.144199,4,2,48625,3208,NULL,NULL,2,NULL
624,"Alta Airport","ALF","Alta","Norway",69.976097,23.371700,6,4,368393,NULL,NULL,NULL,1,NULL
625,"Bømoen Airport","\N","Voss","Norway",60.638901,6.501500,NULL,NULL,NULL,NULL,NULL,NULL,NULL,NULL
626,"Brønnøysund Airport","BNN","Bronnoysund","Norway",65.461098,12.217500,NULL,NULL,117471,11494,NULL,NULL,1,NULL
627,"Bodø Airport","BOO","Bodo","Norway",67.269203,14.365300,16,5,1824601,NULL,NULL,NULL,1,NULL
628,"Bergen Airport Flesland","BGO","Bergen","Norway",60.293400,5.218140,64,17,NULL,NULL,NULL,NULL,1,NULL
629,"Båtsfjord Airport","BJF","Batsfjord","Norway",70.600502,29.691401,NULL,NULL,14485,2551,NULL,NULL,1,NULL
630,"Kristiansand Airport","KRS","Kristiansand","Norway",58.204201,8.085370,5,4,1061130,19290,NULL,NULL,1,NULL
631,"Geilo Airport Dagali","DLD","Geilo","Norway",60.417301,8.518350,NULL,NULL,NULL,NULL,NULL,NULL,1,NULL
632,"Bardufoss Airport","BDU","Bardufoss","Norway",69.055801,18.540400,NULL,NULL,218451,5905,NULL,NULL,1,NULL
633,"Leirin Airport","VDB","Fagernes","Norway",61.015598,9.288060,NULL,NULL,NULL,NULL,NULL,NULL,1,NULL
634,"Florø Airport","FRO","Floro","Norway",61.583599,5.024720,3,2,200356,11654,NULL,NULL,1,NULL
635,"Oslo Lufthavn","OSL","Oslo","Norway",60.121000,11.050200,147,40,9021729,125428,NULL,NULL,2,"1998-10-08"
636,"Haugesund Airport","HAU","Haugesund","Norway",59.345299,5.208360,5,5,694005,10265,NULL,NULL,1,NULL
637,"Hasvik Airport","HAA","Hasvik","Norway",70.486702,22.139700,NULL,NULL,7629,1272,NULL,NULL,1,NULL
638,"Kristiansund Airport (Kvernberget)","KSU","Kristiansund","Norway",63.111801,7.824520,2,2,NULL,NULL,NULL,NULL,1,NULL
639,"Kjeller Airport","\N","Kjeller","Norway",59.969299,11.036100,NULL,NULL,NULL,NULL,NULL,NULL,1,NULL
640,"Kirkenes Airport (Høybuktmoen)","KKN","Kirkenes","Norway",69.725800,29.891300,6,4,NULL,NULL,NULL,NULL,1,NULL
641,"Lista Airport","FAN","Farsund","Norway",58.099499,6.626050,NULL,NULL,NULL,NULL,NULL,NULL,1,NULL
642,"Molde Airport","MOL","Molde","Norway",62.744701,7.262500,2,2,481406,9412,NULL,NULL,1,NULL
643,"Mosjøen Airport (Kjærstad)","MJF","Mosjoen","Norway",65.783997,13.214900,NULL,NULL,NULL,NULL,NULL,NULL,1,NULL
644,"Banak Airport","LKL","Lakselv","Norway",70.068802,24.973499,3,2,71763,3699,NULL,NULL,1,NULL
645,"Notodden Airport","NTB","Notodden","Norway",59.565701,9.212220,NULL,NULL,3423,5078,NULL,NULL,1,NULL
646,"Ørland Airport","OLA","Orland","Norway",63.698898,9.604000,NULL,NULL,5546,1462,NULL,NULL,1,NULL
647,"Røros Airport","RRS","Roros","Norway",62.578400,11.342300,NULL,NULL,21575,2768,NULL,NULL,1,NULL
648,"Skien Airport","SKE","Skien","Norway",59.185001,9.566940,NULL,NULL,33080,7108,NULL,NULL,1,NULL
649,"Stord Airport","SRP","Stord","Norway",59.791901,5.340850,NULL,NULL,37936,3538,NULL,NULL,1,NULL
650,"Sandnessjøen Airport (Stokka)","SSJ","Sandnessjoen","Norway",65.956802,12.468900,NULL,NULL,NULL,NULL,NULL,NULL,1,NULL
651,"Trondheim Airport Værnes","TRD","Trondheim","Norway",63.457802,10.924000,30,8,4381921,NULL,NULL,NULL,2,NULL
652,"Stavanger Airport Sola","SVG","Stavanger","Norway",58.876701,5.637780,29,9,4309723,NULL,NULL,NULL,2,NULL
653,"Babice Airport","\N","Warsaw","Poland",52.268501,20.910999,NULL,NULL,NULL,NULL,NULL,NULL,NULL,NULL
654,"Gdańsk Lech Wałęsa Airport","GDN","Gdansk","Poland",54.377602,18.466200,73,12,NULL,49502,NULL,NULL,1,NULL
655,"Kraków John Paul II International Airport","KRK","Krakow","Poland",50.077702,19.784800,123,30,NULL,71258,NULL,NULL,1,NULL
656,"Muchowiec Airport","\N","Katowice","Poland",50.238098,19.034201,NULL,NULL,NULL,NULL,NULL,NULL,1,NULL
657,"Katowice International Airport","KTW","Katowice","Poland",50.474300,19.080000,45,8,5609022,45,NULL,NULL,1,NULL
658,"Mielec Airport","\N","Mielec","Poland",50.322300,21.462099,NULL,NULL,0,NULL,NULL,NULL,1,NULL
659,"Poznań-Ławica Airport","POZ","Poznan","Poland",52.421001,16.826300,47,10,2789962,34966,NULL,NULL,1,NULL
660,"Rzeszów-Jasionka Airport","RZE","Rzeszow","Poland",50.110001,22.018999,14,5,NULL,20,NULL,NULL,2,NULL
661,"Szczecin-Goleniów """"Solidarność"""" Airport","SZZ","Szczecin","Poland",53.584702,14.902200,7,4,NULL,NULL,NULL,NULL,1,NULL
662,"Redzikowo Air Base","OSP","Slupsk","Poland",54.478901,17.107500,NULL,NULL,NULL,NULL,NULL,NULL,1,NULL
663,"Swidwin Military Air Base","\N","Shapaja","Poland",53.790600,15.826300,NULL,NULL,NULL,NULL,NULL,NULL,NULL,NULL
664,"Warsaw Chopin Airport","WAW","Warsaw","Poland",52.165699,20.967100,130,30,18499527,NULL,NULL,NULL,2,"1934-04-29"
665,"Copernicus Wrocław Airport","WRO","Wroclaw","Poland",51.102699,16.885799,60,11,NULL,NULL,NULL,NULL,1,NULL
666,"Zielona Góra-Babimost Airport","IEG","Zielona Gora","Poland",52.138500,15.798600,NULL,NULL,NULL,NULL,NULL,NULL,1,NULL
667,"Malmen Air Base","\N","Linkoeping","Sweden",58.402302,15.525700,NULL,NULL,NULL,NULL,NULL,NULL,2,NULL
668,"Bråvalla Air Base","\N","Norrkoeping","Sweden",58.610901,16.103600,NULL,NULL,NULL,NULL,NULL,NULL,NULL,NULL
669,"Uppsala Airport","\N","Uppsala","Sweden",59.897301,17.588600,NULL,NULL,NULL,NULL,NULL,NULL,2,NULL
670,"Ronneby Airport","RNB","Ronneby","Sweden",56.266701,15.265000,2,2,NULL,NULL,NULL,NULL,1,NULL
671,"Råda Air Base","\N","Rada","Sweden",58.498100,13.053200,NULL,NULL,NULL,NULL,NULL,NULL,NULL,NULL
672,"Gothenburg-Landvetter Airport","GOT","Gothenborg","Sweden",57.662800,12.279800,62,25,NULL,NULL,NULL,NULL,1,"1977-10-03"
673,"Jönköping Airport","JKG","Joenkoeping","Sweden",57.757599,14.068700,NULL,NULL,NULL,4964,NULL,NULL,2,"1961-09-03"
674,"Falköping Airport","\N","Falkoping","Sweden",58.169800,13.587800,NULL,NULL,NULL,NULL,NULL,NULL,1,NULL
675,"Lidköping-Hovby Airport","LDK","Lidkoping","Sweden",58.465500,13.174400,NULL,NULL,NULL,NULL,NULL,NULL,1,NULL
676,"Gothenburg City Airport","GSE","Gothenborg","Sweden",57.774700,11.870400,NULL,NULL,NULL,NULL,NULL,NULL,2,NULL
677,"Skövde Airport","KVB","Skovde","Sweden",58.456402,13.972700,NULL,NULL,NULL,NULL,NULL,NULL,1,NULL
678,"Trollhättan-Vänersborg Airport","THN","Trollhattan","Sweden",58.318100,12.345000,NULL,NULL,NULL,NULL,NULL,NULL,1,NULL
679,"Karlsborg Air Base","\N","Karlsborg","Sweden",58.513802,14.507100,NULL,NULL,NULL,NULL,NULL,NULL,NULL,NULL
680,"Såtenäs Air Base","\N","Satenas","Sweden",58.426399,12.714400,NULL,NULL,NULL,NULL,NULL,NULL,0,NULL
681,"Barkarby Airport","\N","Stockholm","Sweden",59.414474,17.882137,NULL,NULL,NULL,NULL,NULL,NULL,1,NULL
682,"Karlskoga Airport","KSK","Karlskoga","Sweden",59.345901,14.495900,NULL,NULL,NULL,NULL,NULL,NULL,1,NULL
683,"Mora Airport","MXX","Mora","Sweden",60.957901,14.511400,NULL,NULL,NULL,NULL,NULL,NULL,1,NULL
684,"Stockholm Skavsta Airport","NYO","Stockholm","Sweden",58.788601,16.912201,8,3,2296815,NULL,NULL,NULL,2,"1984-09-23"
685,"Arvika Airport","\N","Arvika","Sweden",59.675900,12.639400,NULL,NULL,NULL,NULL,NULL,NULL,NULL,NULL
686,"Emmaboda Airfield","\N","Emmaboda","Sweden",56.610802,15.604800,NULL,NULL,NULL,NULL,NULL,NULL,NULL,NULL
687,"Feringe Airport","\N","Ljungby","Sweden",56.950298,13.921700,NULL,NULL,NULL,NULL,NULL,NULL,NULL,NULL
688,"Kristianstad Airport","KID","Kristianstad","Sweden",55.921700,14.085500,NULL,NULL,NULL,NULL,NULL,NULL,1,NULL
689,"Landskrona Airport","\N","Landskrona","Sweden",55.945999,12.870000,NULL,NULL,NULL,NULL,NULL,NULL,NULL,NULL
690,"Oskarshamn Airport","OSK","Oskarshamn","Sweden",57.350498,16.497999,NULL,NULL,NULL,NULL,NULL,NULL,1,NULL
691,"Anderstorp Airport","\N","Anderstorp","Sweden",57.264198,13.599400,NULL,NULL,NULL,NULL,NULL,NULL,0,"1968-06-16"
692,"Kalmar Airport","KLR","Kalkmar","Sweden",56.685501,16.287600,3,2,NULL,NULL,NULL,NULL,2,NULL
693,"Malmö Sturup Airport","MMX","Malmoe","Sweden",55.536305,13.376198,9,5,NULL,NULL,NULL,NULL,2,NULL
694,"Halmstad Airport","HAD","Halmstad","Sweden",56.691101,12.820200,NULL,NULL,NULL,NULL,NULL,NULL,1,NULL
695,"Hagshult Air Base","\N","Hagshult","Sweden",57.292198,14.137200,NULL,NULL,NULL,NULL,NULL,NULL,NULL,NULL
696,"Växjö Kronoberg Airport","VXO","Vaxjo","Sweden",56.929100,14.728000,7,3,NULL,NULL,NULL,NULL,1,NULL
697,"Hallviken Airport","\N","Hallviken","Sweden",63.738300,15.458300,NULL,NULL,NULL,NULL,NULL,NULL,NULL,NULL
698,"Hedlanda Airport","\N","Hede","Sweden",62.408901,13.747200,NULL,NULL,NULL,NULL,NULL,NULL,NULL,NULL
699,"Sveg Airport","EVG","Sveg","Sweden",62.047798,14.422900,NULL,NULL,NULL,NULL,NULL,NULL,1,NULL
700,"Gällivare Airport","GEV","Gallivare","Sweden",67.132401,20.814600,NULL,NULL,NULL,NULL,NULL,NULL,1,NULL
701,"Hudiksvall Airport","HUV","Hudiksvall","Sweden",61.768101,17.080700,NULL,NULL,NULL,NULL,NULL,NULL,1,NULL
702,"Jokkmokk Airport","\N","Jokkmokk","Sweden",66.496201,20.147200,NULL,NULL,NULL,NULL,NULL,NULL,NULL,NULL
703,"Kramfors Sollefteå Airport","KRF","Kramfors","Sweden",63.048599,17.768900,NULL,NULL,NULL,NULL,NULL,NULL,1,NULL
704,"Lycksele Airport","LYC","Lycksele","Sweden",64.548302,18.716200,NULL,NULL,NULL,NULL,NULL,NULL,1,NULL
705,"Optand Airport","\N","Optand","Sweden",63.128601,14.802800,NULL,NULL,NULL,NULL,NULL,NULL,NULL,NULL
706,"Sundsvall-Härnösand Airport","SDL","Sundsvall","Sweden",62.528099,17.443899,NULL,NULL,NULL,NULL,NULL,NULL,1,"1944-09-11"
707,"Örnsköldsvik Airport","OER","Ornskoldsvik","Sweden",63.408298,18.990000,NULL,NULL,NULL,NULL,NULL,NULL,1,NULL
708,"Piteå Airport","\N","Pitea","Sweden",65.398300,21.260799,NULL,NULL,NULL,NULL,NULL,NULL,NULL,NULL
709,"Kiruna Airport","KRN","Kiruna","Sweden",67.821999,20.336800,4,4,NULL,NULL,NULL,NULL,1,NULL
710,"Orsa Airport","\N","Orsa","Sweden",61.189999,14.712600,NULL,NULL,NULL,NULL,NULL,NULL,NULL,NULL
711,"Skellefteå Airport","SFT","Skelleftea","Sweden",64.624802,21.076900,2,2,NULL,NULL,NULL,NULL,1,NULL
712,"Sättna Airport","\N","Sattna","Sweden",62.481400,17.002899,NULL,NULL,NULL,NULL,NULL,NULL,NULL,NULL
713,"Umeå Airport","UME","Umea","Sweden",63.791801,20.282801,2,3,NULL,10152,NULL,NULL,1,NULL
714,"Vilhelmina Airport","VHM","Vilhelmina","Sweden",64.579102,16.833599,NULL,NULL,NULL,NULL,NULL,NULL,1,NULL
715,"Arvidsjaur Airport","AJR","Arvidsjaur","Sweden",65.590302,19.281900,4,2,NULL,NULL,NULL,NULL,1,"1990-01-01"
716,"Örebro Airport","ORB","Orebro","Sweden",59.223701,15.038000,NULL,NULL,NULL,NULL,NULL,NULL,1,NULL
717,"Stockholm Västerås Airport","VST","Vasteras","Sweden",59.589401,16.633600,NULL,NULL,NULL,14250,NULL,NULL,1,NULL
718,"Luleå Airport","LLA","Lulea","Sweden",65.543800,22.122000,3,3,NULL,NULL,NULL,NULL,1,NULL
719,"Vidsel Air Base","\N","Vidsel","Sweden",65.875298,20.149900,NULL,NULL,NULL,NULL,NULL,NULL,3,NULL
720,"Arboga Airport","\N","Arboga","Sweden",59.386600,15.924100,NULL,NULL,NULL,NULL,NULL,NULL,1,NULL
721,"Stockholm-Arlanda Airport","ARN","Stockholm","Sweden",59.651901,17.918600,159,45,18427286,82730,NULL,NULL,3,"1962-04-01"
722,"Stockholm-Bromma Airport","BMA","Stockholm","Sweden",59.354401,17.941700,13,3,NULL,NULL,NULL,NULL,1,"1936-05-23"
723,"Borlange Airport","BLE","Borlange","Sweden",60.422001,15.515200,NULL,NULL,NULL,NULL,NULL,NULL,1,NULL
724,"Hultsfred Airport","HLF","Hultsfred","Sweden",57.525799,15.823300,NULL,NULL,NULL,NULL,NULL,NULL,1,NULL
725,"Gävle Sandviken Airport","GVX","Gavle","Sweden",60.593300,16.951401,NULL,NULL,NULL,NULL,NULL,NULL,1,NULL
726,"Linköping City Airport","LPI","Linkoeping","Sweden",58.406200,15.680500,NULL,NULL,NULL,NULL,NULL,NULL,1,NULL
727,"Norrköping Airport","NRK","Norrkoeping","Sweden",58.586300,16.250601,2,2,NULL,4617,NULL,NULL,2,NULL
728,"Eskilstuna Airport","EKT","Eskilstuna","Sweden",59.351101,16.708401,NULL,NULL,NULL,NULL,NULL,NULL,1,NULL
729,"Visby Airport","VBY","Visby","Sweden",57.662800,18.346201,7,4,NULL,NULL,NULL,NULL,2,NULL
730,"Kalixfors Airport","\N","Kalixfors","Sweden",67.764801,20.257200,NULL,NULL,NULL,NULL,NULL,NULL,NULL,NULL
731,"Spangdahlem Air Base","SPM","Spangdahlem","Germany",49.972698,6.692500,NULL,NULL,NULL,NULL,NULL,NULL,1,NULL
732,"Ramstein Air Base","RMS","Ramstein","Germany",49.436901,7.600280,NULL,NULL,NULL,NULL,NULL,NULL,2,NULL
733,"[Duplicate] Giebelstadt Army Air Field","GHF","Giebelstadt","Germany",49.648102,9.966490,NULL,NULL,NULL,NULL,NULL,NULL,NULL,NULL
734,"Bückeburg Air Base","\N","Brueckeburg","Germany",52.278500,9.082170,NULL,NULL,NULL,NULL,NULL,NULL,1,NULL
735,"Celle Airport","ZCN","Celle","Germany",52.591202,10.022100,NULL,NULL,NULL,NULL,NULL,NULL,1,NULL
736,"Rheine Bentlage Air Base","\N","Rheine-brentlange","Germany",52.291199,7.387000,NULL,NULL,NULL,NULL,NULL,NULL,NULL,NULL
737,"Fritzlar Airport","FRZ","Fritzlar","Germany",51.114600,9.286000,NULL,NULL,NULL,NULL,NULL,NULL,1,NULL
738,"Laupheim Air Base","\N","Laupheim","Germany",48.220299,9.910020,NULL,NULL,NULL,NULL,NULL,NULL,1,NULL
739,"Mendig Airfield","\N","Mendig","Germany",50.366001,7.315330,NULL,NULL,NULL,NULL,NULL,NULL,NULL,NULL
740,"Niederstetten Army Air Base","\N","Niederstetten","Germany",49.391945,9.958889,NULL,NULL,NULL,NULL,NULL,NULL,NULL,NULL
741,"Roth Airport","\N","Roth","Germany",49.217499,11.100200,NULL,NULL,NULL,NULL,NULL,NULL,NULL,NULL
742,"Fassberg Air Base","\N","Fassberg","Germany",52.919399,10.185827,NULL,NULL,NULL,NULL,NULL,NULL,1,NULL
743,"Grafenwohr Army Air Field","\N","Grafenwoehr","Germany",49.698700,11.940200,NULL,NULL,NULL,NULL,NULL,NULL,NULL,NULL
744,"Hanau Army Air Field","ZNF","Hanau","Germany",50.169201,8.961590,NULL,NULL,NULL,NULL,NULL,NULL,1,NULL
745,"Hohenfels Army Air Field","\N","Hohenfels","Germany",49.218102,11.836100,NULL,NULL,NULL,NULL,NULL,NULL,NULL,NULL
746,"Flugplatz Kitzingen","KZG","Kitzingen","Germany",49.743099,10.200600,NULL,NULL,NULL,NULL,NULL,NULL,NULL,NULL
747,"Nordholz Naval Airbase","FCN","Nordholz","Germany",53.767700,8.658500,NULL,NULL,NULL,NULL,NULL,NULL,1,NULL
748,"Diepholz Air Base","\N","Diepholz","Germany",52.585556,8.342222,NULL,NULL,NULL,NULL,NULL,NULL,0,NULL
749,"Geilenkirchen Air Base","GKE","Geilenkirchen","Germany",50.960800,6.042420,NULL,NULL,NULL,NULL,NULL,NULL,1,NULL
750,"Hohn Air Base","\N","Hohn","Germany",54.312199,9.538170,NULL,NULL,NULL,NULL,NULL,NULL,1,NULL
751,"Jever Air Base","\N","Jever","Germany",53.533501,7.888670,NULL,NULL,NULL,NULL,NULL,NULL,1,NULL
752,"Rostock-Laage Airport","RLG","Laage","Germany",53.918201,12.278300,2,2,60997,15440,NULL,NULL,1,NULL
753,"Nörvenich Air Base","\N","Noervenich","Germany",50.831200,6.658170,NULL,NULL,NULL,NULL,NULL,NULL,0,NULL
754,"Schleswig Air Base","WBG","Schleswig","Germany",54.459301,9.516330,NULL,NULL,NULL,NULL,NULL,NULL,2,NULL
755,"Wittmundhafen Airport","\N","Wittmundhafen","Germany",53.547798,7.667330,NULL,NULL,NULL,NULL,NULL,NULL,NULL,NULL
756,"Wunstorf Air Base","\N","Wunstorf","Germany",52.457298,9.427170,NULL,NULL,NULL,NULL,NULL,NULL,2,NULL
757,"Vilseck Army Air Field","\N","Vilseck","Germany",49.633598,11.767200,NULL,NULL,NULL,NULL,NULL,NULL,NULL,NULL
758,"Coleman Army Air Field","\N","Coleman","Germany",49.563599,8.463390,NULL,NULL,NULL,NULL,NULL,NULL,NULL,NULL
759,"Wiesbaden Army Airfield","WIE","Wiesbaden","Germany",50.049801,8.325400,NULL,NULL,NULL,NULL,NULL,NULL,1,NULL
760,"Landsberg Lech Air Base","\N","Landsberg","Germany",48.070599,10.906000,NULL,NULL,NULL,NULL,NULL,NULL,NULL,NULL
761,"Büchel Air Base","\N","Buechel","Germany",50.173801,7.063330,NULL,NULL,NULL,NULL,NULL,NULL,1,NULL
762,"Erding Airport","\N","Erding","Germany",48.322300,11.948700,NULL,NULL,NULL,NULL,NULL,NULL,NULL,NULL
763,"Fürstenfeldbruck Air Base","FEL","Fuerstenfeldbruck","Germany",48.205555,11.266944,NULL,NULL,NULL,NULL,NULL,NULL,1,NULL
764,"Holzdorf Air Base","\N","Holzdorf","Germany",51.767799,13.167700,NULL,NULL,NULL,NULL,NULL,NULL,2,NULL
765,"Ingolstadt Manching Airport","IGS","Ingolstadt","Germany",48.715698,11.534000,NULL,NULL,NULL,NULL,NULL,NULL,2,NULL
766,"Lechfeld Air Base","\N","Lechfeld","Germany",48.185504,10.861200,NULL,NULL,NULL,NULL,NULL,NULL,1,NULL
767,"Neuburg AFB","\N","Neuburg","Germany",48.710999,11.211500,NULL,NULL,NULL,NULL,NULL,NULL,NULL,NULL
768,"Gütersloh Air Base","GUT","Guetersloh","Germany",51.922798,8.306330,NULL,NULL,NULL,NULL,NULL,NULL,1,NULL
769,"Alexander Bay Airport","ALJ","Alexander Bay","South Africa",-28.575001,16.533300,NULL,NULL,NULL,NULL,NULL,NULL,3,NULL
770,"Aggeneys Airport","AGZ","Aggeneys","South Africa",-29.281799,18.813900,NULL,NULL,NULL,NULL,NULL,NULL,1,NULL
771,"Brakpan Airport","\N","Brakpan","South Africa",-26.238600,28.301800,NULL,NULL,NULL,NULL,NULL,NULL,NULL,NULL
772,"Bisho Airport","BIY","Bisho","South Africa",-32.897099,27.279100,NULL,NULL,NULL,NULL,NULL,NULL,1,NULL
773,"Bram Fischer International Airport","BFN","Bloemfontein","South Africa",-29.092699,26.302401,4,3,NULL,NULL,NULL,NULL,2,NULL
774,"Bethlehem Airport","\N","Bethlehem","South Africa",-28.248400,28.336100,NULL,NULL,NULL,NULL,NULL,NULL,1,NULL
775,"Hendrik Potgieter Airport","\N","Bothaville","South Africa",-27.366800,26.629200,NULL,NULL,NULL,NULL,NULL,NULL,NULL,NULL
776,"Cape Town International Airport","CPT","Cape Town","South Africa",-33.964802,18.601700,41,28,10,99,NULL,NULL,2,"1954-01-01"
777,"Calvinia Airport","\N","Calvinia","South Africa",-31.500299,19.725901,NULL,NULL,NULL,NULL,NULL,NULL,NULL,NULL
778,"King Shaka International Airport","DUR","Durban","South Africa",-29.614444,31.119722,13,10,NULL,41116,NULL,NULL,1,"2010-05-01"
779,"Ben Schoeman Airport","ELS","East London","South Africa",-33.035599,27.825899,3,3,NULL,NULL,NULL,NULL,2,NULL
780,"Ermelo Airport","\N","Ermelo","South Africa",-26.495600,29.979799,NULL,NULL,NULL,NULL,NULL,NULL,NULL,NULL
781,"Ficksburg Sentraoes Airport","FCB","Ficksburg","South Africa",-28.823099,27.908899,NULL,NULL,NULL,NULL,NULL,NULL,1,NULL
782,"Grand Central Airport","GCJ","Johannesburg","South Africa",-25.986300,28.140100,NULL,NULL,NULL,NULL,NULL,NULL,1,NULL
783,"George Airport","GRJ","George","South Africa",-34.005600,22.378902,4,3,NULL,NULL,NULL,NULL,2,NULL
784,"Graaff Reinet Airport","\N","Graaff Reinet","South Africa",-32.193600,24.541401,NULL,NULL,NULL,NULL,NULL,NULL,NULL,NULL
785,"Grahamstown Airport","\N","Grahamstown","South Africa",-33.284698,26.498100,NULL,NULL,NULL,NULL,NULL,NULL,NULL,NULL
786,"Greytown Airport","\N","Greytown","South Africa",-29.122000,30.586700,NULL,NULL,NULL,NULL,NULL,NULL,1,NULL
787,"Harmony Airport","\N","Harmony","South Africa",-28.078699,26.861200,NULL,NULL,NULL,NULL,NULL,NULL,NULL,NULL
788,"Harrismith Airport","HRS","Harrismith","South Africa",-28.235100,29.106199,NULL,NULL,NULL,NULL,NULL,NULL,1,NULL
789,"Hoedspruit Air Force Base Airport","HDS","Hoedspruit","South Africa",-24.368601,31.048700,2,2,NULL,NULL,NULL,NULL,2,NULL
790,"Gariep Dam Airport","\N","Hendrik Verwoerddam","South Africa",-30.562201,25.528299,NULL,NULL,NULL,NULL,NULL,NULL,NULL,NULL
791,"OR Tambo International Airport","JNB","Johannesburg","South Africa",-26.139200,28.246000,78,42,17,204,NULL,NULL,2,"1952-01-01"
792,"P C Pelser Airport","KXE","Klerksdorp","South Africa",-26.871099,26.718000,NULL,NULL,NULL,NULL,NULL,NULL,3,NULL
793,"Kimberley Airport","KIM","Kimberley","South Africa",-28.802799,24.765200,2,2,NULL,NULL,NULL,NULL,2,NULL
794,"Krugersdorp Airport","\N","Krugersdorp","South Africa",-26.080826,27.725915,NULL,NULL,NULL,NULL,NULL,NULL,NULL,NULL
795,"Kroonstad Airport","\N","Kroonstad","South Africa",-27.660601,27.315800,NULL,NULL,NULL,NULL,NULL,NULL,1,NULL
796,"Johan Pienaar Airport","KMH","Kuruman","South Africa",-27.456699,23.411400,NULL,NULL,NULL,NULL,NULL,NULL,1,NULL
797,"Kleinsee Airport","KLZ","Kleinsee","South Africa",-29.688400,17.094000,NULL,NULL,NULL,NULL,NULL,NULL,1,NULL
798,"Lanseria Airport","HLA","Johannesburg","South Africa",-25.938499,27.926100,NULL,NULL,NULL,NULL,NULL,NULL,2,NULL
799,"Lichtenburg Airport","\N","Lichtenburg","South Africa",-26.175699,26.184601,NULL,NULL,NULL,NULL,NULL,NULL,NULL,NULL
800,"Makhado Air Force Base Airport","\N","Lambertsbaai","South Africa",-23.159901,29.696501,NULL,NULL,NULL,NULL,NULL,NULL,NULL,NULL
801,"Langebaanweg Airport","SDB","Langebaanweg","South Africa",-32.968899,18.160299,NULL,NULL,NULL,NULL,NULL,NULL,4,NULL
802,"Ladysmith Airport","LAY","Ladysmith","South Africa",-28.581699,29.749701,NULL,NULL,NULL,NULL,NULL,NULL,1,NULL
803,"Middelburg Airport","\N","Middelburg","South Africa",-25.684799,29.440201,NULL,NULL,NULL,NULL,NULL,NULL,NULL,NULL
804,"Margate Airport","MGH","Margate","South Africa",-30.857401,30.343000,NULL,NULL,NULL,NULL,NULL,NULL,1,NULL
805,"Marble Hall Airport","\N","Marble Hall","South Africa",-24.989100,29.283100,NULL,NULL,NULL,NULL,NULL,NULL,NULL,NULL
806,"Majuba Power Station Airport","\N","Majuba Power Station","South Africa",-27.079300,29.778500,NULL,NULL,NULL,NULL,NULL,NULL,NULL,NULL
807,"Riverside Airport","LLE","Malalane","South Africa",-25.430000,31.576700,NULL,NULL,NULL,NULL,NULL,NULL,1,NULL
808,"Morningside Farm Airport","\N","Musina","South Africa",-25.704500,26.909000,NULL,NULL,NULL,NULL,NULL,NULL,NULL,NULL
809,"Mkuze Airport","MZQ","Mkuze","South Africa",-27.626101,32.044300,NULL,NULL,NULL,NULL,NULL,NULL,1,NULL
810,"Newcastle Airport","NCS","Newcastle","South Africa",-27.770599,29.976900,9,5,NULL,NULL,NULL,NULL,1,NULL
811,"Nylstroom Airfield","\N","Nylstroom","South Africa",-24.686100,28.434900,NULL,NULL,NULL,NULL,NULL,NULL,NULL,NULL
812,"Overberg Airport","OVG","Overberg","South Africa",-34.554901,20.250700,NULL,NULL,NULL,NULL,NULL,NULL,NULL,NULL
813,"Oudtshoorn Airport","OUH","Oudtshoorn","South Africa",-33.606998,22.188999,NULL,NULL,NULL,NULL,NULL,NULL,1,NULL
814,"Port Elizabeth Airport","PLZ","Port Elizabeth","South Africa",-33.984901,25.617300,3,4,NULL,NULL,NULL,NULL,3,NULL
815,"Plettenberg Bay Airport","PBZ","Plettenberg Bay","South Africa",-34.088160,23.328723,NULL,NULL,NULL,NULL,NULL,NULL,1,NULL
816,"Hendrik Van Eck Airport","PHW","Phalaborwa","South Africa",-23.937201,31.155399,NULL,NULL,NULL,NULL,NULL,NULL,1,NULL
817,"Pietersburg Municipal Airport","\N","Polokwane","South Africa",-23.926100,29.484400,NULL,NULL,NULL,NULL,NULL,NULL,0,NULL
818,"Port St Johns Airport","JOH","Port Saint Johns","South Africa",-31.605900,29.519800,NULL,NULL,NULL,NULL,NULL,NULL,1,NULL
819,"Pietermaritzburg Airport","PZB","Pietermaritzburg","South Africa",-29.649000,30.398701,NULL,NULL,NULL,NULL,NULL,NULL,1,NULL
820,"Pilanesberg International Airport","NTY","Pilanesberg","South Africa",-25.333799,27.173401,NULL,NULL,NULL,NULL,NULL,NULL,1,NULL
821,"Polokwane International Airport","PTG","Potgietersrus","South Africa",-23.845269,29.458615,NULL,NULL,NULL,NULL,NULL,NULL,2,NULL
822,"Potchefstroom Airport","PCF","Potchefstroom","South Africa",-26.671000,27.081900,NULL,NULL,NULL,NULL,NULL,NULL,NULL,NULL
823,"Parys Airport","\N","Parys","South Africa",-26.889299,27.503401,NULL,NULL,NULL,NULL,NULL,NULL,NULL,NULL
824,"Queenstown Airport","UTW","Queenstown","South Africa",-31.920200,26.882200,NULL,NULL,NULL,10101,NULL,NULL,1,NULL
825,"Richards Bay Airport","RCB","Richard's Bay","South Africa",-28.740999,32.092098,NULL,NULL,NULL,NULL,NULL,NULL,1,NULL
826,"Rustenburg Airport","\N","Rustenburg","South Africa",-25.644300,27.271099,NULL,NULL,NULL,NULL,NULL,NULL,1,NULL
827,"Robertson Airport","ROD","Robertson","South Africa",-33.812199,19.902800,NULL,NULL,NULL,NULL,NULL,NULL,2,NULL
828,"Springbok Airport","SBU","Springbok","South Africa",-29.689301,17.939600,NULL,NULL,NULL,NULL,NULL,NULL,1,NULL
829,"Secunda Airport","ZEC","Secunda","South Africa",-26.524099,29.170099,NULL,NULL,NULL,NULL,NULL,NULL,1,NULL
830,"Saldanha /Vredenburg Airport","\N","Saldanha","South Africa",-32.964100,17.969299,NULL,NULL,NULL,NULL,NULL,NULL,NULL,NULL
831,"Springs Airfield","\N","Springs","South Africa",-26.249400,28.398272,NULL,NULL,NULL,NULL,NULL,NULL,NULL,NULL
832,"Swartkop Air Force Base","\N","Swartkop","South Africa",-25.809700,28.164600,NULL,NULL,NULL,NULL,NULL,NULL,NULL,NULL
833,"Sishen Airport","SIS","Sishen","South Africa",-27.648600,22.999300,NULL,NULL,NULL,NULL,NULL,NULL,1,NULL
834,"Hendrik Swellengrebel Airport","\N","Swellendam","South Africa",-34.048199,20.474600,NULL,NULL,NULL,NULL,NULL,NULL,NULL,NULL
835,"Skukuza Airport","SZK","Skukuza","South Africa",-24.960899,31.588699,NULL,NULL,NULL,NULL,NULL,NULL,1,NULL
836,"Tommys Field Airport","\N","Tommy's Field","South Africa",-28.260000,22.993200,NULL,NULL,NULL,NULL,NULL,NULL,NULL,NULL
837,"New Tempe Airport","\N","Bloemfontein","South Africa",-29.032900,26.157600,NULL,NULL,NULL,NULL,NULL,NULL,NULL,NULL
838,"Tutuka Power Station Airport","\N","Tutuka","South Africa",-26.776600,29.338800,NULL,NULL,NULL,NULL,NULL,NULL,NULL,NULL
839,"Tzaneen Airport","LTA","Tzaneen","South Africa",-23.824400,30.329300,NULL,NULL,NULL,NULL,NULL,NULL,1,NULL
840,"Prince Mangosuthu Buthelezi Airport","ULD","Ulundi","South Africa",-28.320601,31.416500,NULL,NULL,NULL,NULL,NULL,NULL,2,NULL
841,"Pierre Van Ryneveld Airport","UTN","Upington","South Africa",-28.399099,21.260201,NULL,NULL,NULL,NULL,NULL,NULL,2,NULL
842,"K. D. Matanzima Airport","UTT","Umtata","South Africa",-31.546363,28.673355,NULL,NULL,NULL,NULL,NULL,NULL,2,NULL
843,"Vryburg Airport","VRU","Vryburg","South Africa",-26.982401,24.728800,NULL,NULL,NULL,NULL,NULL,NULL,1,NULL
844,"Virginia Airport","VIR","Durban","South Africa",-29.770599,31.058399,NULL,NULL,NULL,NULL,NULL,NULL,1,NULL
845,"Vredendal Airport","VRE","Vredendal","South Africa",-31.641001,18.544800,NULL,NULL,NULL,NULL,NULL,NULL,1,NULL
846,"Vereeniging Airport","\N","Vereeniging","South Africa",-26.566401,27.960800,NULL,NULL,NULL,NULL,NULL,NULL,NULL,NULL
847,"Wonderboom Airport","PRY","Pretoria","South Africa",-25.653900,28.224199,NULL,NULL,NULL,NULL,NULL,NULL,2,NULL
848,"Witbank Airport","\N","Witbank","South Africa",-25.832300,29.191999,NULL,NULL,NULL,NULL,NULL,NULL,NULL,NULL
849,"Waterkloof Air Force Base","WKF","Waterkloof","South Africa",-25.830000,28.222500,NULL,NULL,NULL,NULL,NULL,NULL,2,NULL
850,"Welkom Airport","\N","Welkom","South Africa",-27.996825,26.663334,NULL,NULL,NULL,NULL,NULL,NULL,NULL,NULL
851,"Ysterplaat Air Force Base","\N","Ysterplaat","South Africa",-33.900200,18.498301,NULL,NULL,NULL,NULL,NULL,NULL,NULL,NULL
852,"Zeerust Airport","\N","Zeerust","South Africa",-25.599001,26.042299,NULL,NULL,NULL,NULL,NULL,NULL,NULL,NULL
853,"Francistown Airport","FRW","Francistown","Botswana",-21.159599,27.474501,NULL,NULL,NULL,NULL,NULL,NULL,2,NULL
854,"Jwaneng Airport","JWA","Jwaneng","Botswana",-24.602301,24.691000,NULL,NULL,NULL,NULL,NULL,NULL,1,NULL
855,"Kasane Airport","BBK","Kasane","Botswana",-17.832899,25.162399,4,3,NULL,NULL,NULL,NULL,1,NULL
856,"Maun Airport","MUB","Maun","Botswana",-19.972601,23.431101,6,4,NULL,NULL,NULL,NULL,1,NULL
857,"Sir Seretse Khama International Airport","GBE","Gaberone","Botswana",-24.555201,25.918200,6,3,146162,NULL,NULL,NULL,1,NULL
858,"Selebi Phikwe Airport","PKW","Selebi-phikwe","Botswana",-22.058300,27.828800,NULL,NULL,NULL,NULL,NULL,NULL,1,NULL
859,"Maya-Maya Airport","BZV","Brazzaville","Congo (Brazzaville)",-4.251700,15.253000,10,14,NULL,NULL,NULL,NULL,1,NULL
860,"Owando Airport","FTX","Owando","Congo (Kinshasa)",-0.531350,15.950100,NULL,NULL,NULL,NULL,NULL,NULL,1,NULL
861,"Ouesso Airport","OUE","Ouesso","Congo (Kinshasa)",1.615990,16.037901,NULL,NULL,NULL,NULL,NULL,NULL,1,NULL
862,"Pointe Noire Airport","PNR","Pointe-noire","Congo (Brazzaville)",-4.816030,11.886600,9,9,NULL,NULL,NULL,NULL,1,NULL
863,"Matsapha Airport","MTS","Manzini","Swaziland",-26.528999,31.307501,NULL,NULL,NULL,NULL,NULL,NULL,1,NULL
864,"Bangui M'Poko International Airport","BGF","Bangui","Central African Republic",4.398480,18.518801,6,8,11600,NULL,NULL,NULL,1,"1967-01-01"
865,"Berbérati Airport","BBT","Berberati","Central African Republic",4.221580,15.786400,NULL,NULL,NULL,NULL,NULL,NULL,1,NULL
866,"Bata Airport","BSG","Bata","Equatorial Guinea",1.905470,9.805680,3,3,253678,NULL,NULL,NULL,1,NULL
867,"Malabo Airport","SSG","Malabo","Equatorial Guinea",3.755270,8.708720,11,9,237376,NULL,NULL,NULL,2,NULL
868,"RAF Ascension Island","ASI","Wide Awake","Saint Helena",-7.969600,-14.393700,NULL,NULL,NULL,NULL,NULL,NULL,1,NULL
869,"Sir Seewoosagur Ramgoolam International Airport","MRU","Plaisance","Mauritius",-20.430201,57.683601,27,20,3884056,NULL,NULL,NULL,1,NULL
870,"Sir Charles Gaetan Duval Airport","RRG","Rodriguez Island","Mauritius",-19.757700,63.361000,2,2,NULL,NULL,NULL,NULL,1,NULL
871,"Diego Garcia Naval Support Facility","NKW","Diego Garcia Island","British Indian Ocean Territory",-7.313270,72.411102,NULL,NULL,NULL,NULL,NULL,NULL,1,NULL
872,"Tiko Airport","TKC","Tiko","Cameroon",4.089190,9.360530,NULL,NULL,NULL,NULL,NULL,NULL,1,NULL
873,"Douala International Airport","DLA","Douala","Cameroon",4.006080,9.719480,21,16,NULL,NULL,NULL,NULL,1,NULL
874,"Salak Airport","MVR","Maroua","Cameroon",10.451400,14.257400,NULL,NULL,NULL,NULL,NULL,NULL,1,NULL
875,"Foumban Nkounja Airport","FOM","Foumban","Cameroon",5.636920,10.750800,NULL,NULL,NULL,NULL,NULL,NULL,1,NULL
876,"N'Gaoundéré Airport","NGE","N'gaoundere","Cameroon",7.357010,13.559200,NULL,NULL,NULL,NULL,NULL,NULL,1,NULL
877,"Garoua International Airport","GOU","Garoua","Cameroon",9.335890,13.370100,NULL,NULL,NULL,NULL,NULL,NULL,1,NULL
878,"Bafoussam Airport","BFX","Bafoussam","Cameroon",5.536920,10.354600,NULL,NULL,NULL,NULL,NULL,NULL,1,NULL
879,"Bamenda Airport","BPC","Bamenda","Cameroon",6.039240,10.122600,NULL,NULL,NULL,NULL,NULL,NULL,1,NULL
880,"Yaoundé Airport","YAO","Yaounde","Cameroon",3.836040,11.523500,NULL,NULL,NULL,NULL,NULL,NULL,1,NULL
881,"Kasompe Airport","CGJ","Kasompe","Zambia",-12.572800,27.893900,NULL,NULL,NULL,NULL,NULL,NULL,1,NULL
